id,cidade,estado,sigla,codigo,gentilico,latitude,longitude,populacao,area,densidade
25,Arapiraca,Alagoas,AL,2700300,arapiraquense,-9.755588,-36.6639577,231747,345.66,670.5
37,Campo Alegre,Alagoas,AL,2701407,campo-alegrense,-9.7831304,-36.3507729,57063,312.71,182.5
46,Coruripe,Alagoas,AL,2702306,coruripense,-10.1250022,-36.1761522,56933,897.78,63.4
48,Delmiro Gouveia,Alagoas,AL,2702405,delmirense,-9.3859509,-37.998877,52016,626.69,83.0
69,Maceió,Alagoas,AL,2704302,maceioense,-9.6498487,-35.7089492,1018948,509.32,2000.6
74,Marechal Deodoro,Alagoas,AL,2704708,deodorense,-9.710143,-35.897056,51901,331.19,156.7
89,Palmeira dos Índios,Alagoas,AL,2706307,palmeirense,-9.4119133,-36.5661908,73218,450.96,162.4
95,Penedo,Alagoas,AL,2706703,penedense,-10.2878675,-36.5822391,63683,689.88,92.3
105,Rio Largo,Alagoas,AL,2707701,rio-larguense,-9.5106567,-35.8122531,75120,293.82,255.7
114,São Miguel dos Campos,Alagoas,AL,2708600,miguelense,-9.7625469,-36.1328132,61251,360.88,169.7
123,União dos Palmares,Alagoas,AL,2709301,palmarino,-9.1596326,-36.0225965,65611,420.72,155.9
209,Alagoinhas,Bahia,BA,2900702,alagoinhense,-12.1339689,-38.4211223,151596,707.56,214.3
227,Araci,Bahia,BA,2902104,araciense,-11.3393515,-38.9586554,54379,1495.55,36.4
235,Barra,Bahia,BA,2902708,barrense,-11.0897577,-43.1390524,53578,11422.54,4.7
240,Barreiras,Bahia,BA,2903201,barreirense,-12.1477483,-44.9953475,155439,7859.72,19.8
249,Bom Jesus da Lapa,Bahia,BA,2903904,lapense,-13.2513786,-43.4112394,69148,4115.51,16.8
258,Brumado,Bahia,BA,2904605,brumadense,-14.1968614,-41.6809724,67195,2207.61,30.4
267,Caetité,Bahia,BA,2905206,caetiteense,-14.0648657,-42.4858867,50975,2651.54,19.2
272,Camaçari,Bahia,BA,2905701,camaçariense,-12.6971776,-38.3331983,299132,785.34,380.9
275,Campo Formoso,Bahia,BA,2906006,campo-formosense,-10.1914246,-40.7969149,71206,7161.83,9.9
280,Candeias,Bahia,BA,2906501,candeense,-12.6720059,-38.5474917,87076,251.63,346.1
291,Casa Nova,Bahia,BA,2907202,casa-novense,-9.1756152,-40.9734426,71969,9647.07,7.5
294,Catu,Bahia,BA,2907509,catuense,-12.3713805,-38.3852123,54704,426.96,128.1
304,Conceição do Coité,Bahia,BA,2908408,coiteense,-11.5576676,-39.2791011,66612,1015.25,65.6
318,Cruz das Almas,Bahia,BA,2909802,cruz-almense,-12.6735557,-39.1016848,63239,139.12,454.6
321,Dias d'Ávila,Bahia,BA,2910057,diasdavilense,-12.6191964,-38.2929948,81089,184.23,440.2
329,Euclides da Cunha,Bahia,BA,2910701,euclidense,-10.5082596,-39.0156074,60585,1992.64,30.4
330,Eunápolis,Bahia,BA,2910727,eunapolitano,-16.3719941,-39.5825118,113380,1425.97,79.5
333,Feira de Santana,Bahia,BA,2910800,feirense,-12.2597272,-38.9646608,614872,1304.43,471.4
345,Guanambi,Bahia,BA,2911709,guanambiense,-14.2235167,-42.7803335,84481,1272.37,66.4
366,Ilhéus,Bahia,BA,2913606,ilheuense,-14.7931916,-39.0464023,162327,1588.56,102.2
370,Ipirá,Bahia,BA,2914000,ipiraense,-12.1571052,-39.7400824,59595,3105.28,19.2
376,Irecê,Bahia,BA,2914604,ireceense,-11.303555,-41.8561503,72967,319.17,228.6
378,Itaberaba,Bahia,BA,2914703,itaberabense,-12.5245553,-40.3061968,64489,2386.39,27.0
379,Itabuna,Bahia,BA,2914802,itabunense,-14.7880327,-39.2784178,213223,401.03,531.7
388,Itamaraju,Bahia,BA,2915601,itamarajuense,-17.0382224,-39.5389741,64486,2360.29,27.3
396,Itapetinga,Bahia,BA,2916401,itapetinguense,-15.2475119,-40.2509918,76147,1651.16,46.1
410,Jacobina,Bahia,BA,2917508,jacobinense,-11.1816506,-40.5120603,80518,2192.9,36.7
411,Jaguaquara,Bahia,BA,2917607,jaguaquarense,-13.5281974,-39.9695429,54423,924.74,58.9
415,Jequié,Bahia,BA,2918001,jequieense,-13.8590328,-40.0837506,155966,2969.03,52.5
420,Juazeiro,Bahia,BA,2918407,juazeirense,-9.4167977,-40.503516,216707,6721.24,32.2
433,Lauro de Freitas,Bahia,BA,2919207,lauro-freitense,-12.8820575,-38.3148204,198440,57.66,3441.3
437,Luís Eduardo Magalhães,Bahia,BA,2919553,luiseduardense,-12.0904542,-45.7805375,87519,3940.54,22.2
496,Paulo Afonso,Bahia,BA,2924009,paulo-afonsino,-9.4061251,-38.2163717,117782,1545.19,76.2
513,Porto Seguro,Bahia,BA,2925303,porto-segurense,-16.4443537,-39.0653656,148686,2285.76,65.0
529,Ribeira do Pombal,Bahia,BA,2926608,pombalense,-10.8365146,-38.5439246,53807,1177.45,45.7
551,Santo Amaro,Bahia,BA,2928604,santo-amarense,-12.5465375,-38.7110678,60069,489.32,122.8
552,Santo Antônio de Jesus,Bahia,BA,2928703,santo-antoniense,-12.9698503,-39.2617368,101512,261.74,387.8
553,Santo Estêvão,Bahia,BA,2928802,santo-estevense,-12.4284443,-39.2509155,52850,360.33,146.7
572,Senhor do Bonfim,Bahia,BA,2930105,bonfinense,-10.459783,-40.1868956,79015,789.36,100.1
577,Serrinha,Bahia,BA,2930501,serrinhense,-11.6577666,-39.0094642,80861,583.31,138.6
579,Simões Filho,Bahia,BA,2930709,simões-filhense,-12.7700716,-38.4218849,134377,201.22,667.8
590,Teixeira de Freitas,Bahia,BA,2931350,teixeirense,-17.5400307,-39.7421813,160487,1165.62,137.7
596,Tucano,Bahia,BA,2931905,tucanense,-10.9588216,-38.7897587,50687,2185.01,23.2
607,Valença,Bahia,BA,2932903,valenciano,-13.3708767,-39.072909,96562,1124.32,85.9
615,Vitória da Conquista,Bahia,BA,2933307,conquistense,-14.8619237,-40.8445346,338480,3705.84,91.3
622,Acaraú,Ceará,CE,2300200,acarauense,-2.8880609,-40.1186635,62641,845.47,74.1
623,Acopiara,Ceará,CE,2300309,acopiarense,-6.0838087,-39.5691841,54270,2265.35,24.0
631,Aquiraz,Ceará,CE,2301000,aquirazense,-3.8996737,-38.389906,80271,481.0,166.9
632,Aracati,Ceará,CE,2301109,aracatiense,-4.5612094,-37.7688612,74547,1230.51,60.6
642,Barbalha,Ceará,CE,2301901,barbalhense,-7.2986169,-39.3024396,60781,569.51,106.7
647,Beberibe,Ceará,CE,2302206,beberibense,-4.1828216,-38.1300412,53573,1620.34,33.1
649,Boa Viagem,Ceará,CE,2302404,boa-viagense,-5.1260633,-39.7309616,54470,2836.78,19.2
651,Camocim,Ceará,CE,2302602,camocimense,-2.9014475,-40.8388865,63661,1128.89,56.4
653,Canindé,Ceará,CE,2302800,canindeense,-4.3580865,-39.3137855,76997,3218.48,23.9
660,Cascavel,Ceará,CE,2303501,cascavelense,-4.1328636,-38.2470885,71743,834.96,85.9
663,Caucaia,Ceará,CE,2303709,caucaiense,-3.6824047,-38.9132305,361400,1227.93,294.3
669,Crateús,Ceará,CE,2304103,crateuense,-5.178204,-40.6695522,75074,2985.15,25.1
670,Crato,Ceará,CE,2304202,cratense,-7.2299572,-39.4122984,132123,1176.47,112.3
675,Eusébio,Ceará,CE,2304285,eusebiano,-3.8841887,-38.4639632,53618,79.01,678.7
678,Fortaleza,Ceará,CE,2304400,fortalezense,-3.7318616,-38.5266704,2669342,312.41,8544.4
683,Granja,Ceará,CE,2304707,granjense,-3.11846,-40.8303495,54748,2663.03,20.6
690,Horizonte,Ceará,CE,2305233,horizontino,-4.1132769,-38.4639632,67337,160.76,418.9
695,Icó,Ceará,CE,2305407,icoense,-6.4026236,-38.8591633,68018,1872.0,36.3
696,Iguatu,Ceará,CE,2305506,iguatuense,-6.3587958,-39.298059,102498,1029.21,99.6
706,Itapajé,Ceará,CE,2306306,itapageense,-3.741645,-39.6105142,52675,430.57,122.3
707,Itapipoca,Ceará,CE,2306405,itapipoquense,-3.499706,-39.5839241,129358,1613.91,80.2
718,Juazeiro do Norte,Ceará,CE,2307304,juazeirense,-7.2284727,-39.3121233,274207,248.83,1102.0
721,Limoeiro do Norte,Ceará,CE,2307601,limoeirense,-5.1443118,-38.0850339,59540,750.07,79.4
723,Maracanaú,Ceará,CE,2307650,maracanauense,-3.8674127,-38.6261113,227886,106.65,2136.8
724,Maranguape,Ceará,CE,2307700,maranguapense,-3.8918125,-38.6832565,128978,590.87,218.3
736,Morada Nova,Ceará,CE,2308708,morada-novense,-5.097983,-38.3705722,61890,2778.58,22.3
746,Pacajus,Ceará,CE,2309607,pacajuense,-4.1731846,-38.460945,72203,254.64,283.6
747,Pacatuba,Ceará,CE,2309706,pacatubano,-3.9295278,-38.6057798,83432,131.99,632.1
768,Quixadá,Ceará,CE,2311306,quixadaense,-4.9684385,-39.0161259,87728,2019.83,43.4
770,Quixeramobim,Ceará,CE,2311405,quixeramobinense,-5.1920073,-39.2933955,81082,3275.63,24.8
774,Russas,Ceará,CE,2311801,russano,-4.8094396,-38.1899782,78194,1590.26,49.2
786,Sobral,Ceará,CE,2312908,sobralense,-3.701499,-40.3496894,208935,2122.9,98.4
791,Tauá,Ceará,CE,2313302,tauaense,-5.892287,-40.2271243,58859,4018.16,14.6
793,Tianguá,Ceará,CE,2313401,tianguaense,-3.7300232,-40.9926511,75946,908.89,83.6
794,Trairi,Ceará,CE,2313500,trairiense,-3.3072032,-39.3621196,55918,929.02,60.2
803,Viçosa do Ceará,Ceará,CE,2314102,viçosense,-3.5670807,-41.0919197,60889,1311.63,46.4
1129,Açailândia,Maranhão,MA,2100055,açailandense,-4.9539357,-47.5030772,112445,5806.44,19.4
1148,Bacabal,Maranhão,MA,2101202,bacabalense,-4.2246772,-44.7849427,104949,1683.07,62.4
1152,Balsas,Maranhão,MA,2101400,balsense,-7.5330309,-46.035885,94887,13141.76,7.2
1154,Barra do Corda,Maranhão,MA,2101608,barra-cordense,-5.5018917,-45.2464996,88212,5190.34,17.0
1155,Barreirinhas,Maranhão,MA,2101707,barreirinhense,-2.759,-42.8236209,62528,3047.05,20.5
1169,Buriticupu,Maranhão,MA,2102325,buriticupuense,-4.4890121,-46.3240951,72358,2544.86,28.4
1180,Caxias,Maranhão,MA,2103000,caxiense,-4.8654138,-43.3619983,164880,5196.77,31.7
1185,Chapadinha,Maranhão,MA,2103208,chapadinhense,-3.7415256,-43.360096,79675,3247.39,24.5
1187,Codó,Maranhão,MA,2103307,codoense,-4.4605557,-43.88945,122859,4361.34,28.2
1191,Coroatá,Maranhão,MA,2103604,coroataense,-4.1283534,-44.1303057,65296,2263.77,28.8
1212,Grajaú,Maranhão,MA,2104800,grajauense,-5.8248093,-46.1594921,69527,8863.57,7.8
1220,Itapecuru Mirim,Maranhão,MA,2105401,itapecuruense,-3.3994526,-44.351805,68203,1478.56,46.1
1227,Lago da Pedra,Maranhão,MA,2105708,lago-pedrense,-4.5702218,-45.1323252,50266,1240.44,40.5
1258,Paço do Lumiar,Maranhão,MA,2107506,luminense,-2.5169408,-44.1022762,122197,126.8,963.7
1272,Pinheiro,Maranhão,MA,2108603,pinheirense,-2.5176989,-45.0797821,83387,1512.97,55.1
1291,Santa Inês,Maranhão,MA,2109908,santa-inesense,-3.6644286,-45.3839708,89044,786.69,113.2
1292,Santa Luzia,Maranhão,MA,2110005,santa-luziense,-3.9697934,-45.6635644,72667,4837.04,15.0
1312,São José de Ribamar,Maranhão,MA,2111201,ribamarense,-2.5503853,-44.070196,177687,180.23,985.9
1332,Timon,Maranhão,MA,2112209,timonense,-5.0980798,-42.8333011,169107,1764.61,95.8
1338,Tutóia,Maranhão,MA,2112506,tutoiense,-2.7617805,-42.275917,58860,1566.09,37.6
1340,Vargem Grande,Maranhão,MA,2112704,vargem-grandense,-3.7127631,-43.8673222,56510,1958.7,28.9
1341,Viana,Maranhão,MA,2112803,vianense,-3.2023658,-45.0373171,52441,1166.75,44.9
1345,Zé Doca,Maranhão,MA,2114007,zé-doquense,-3.2329855,-46.1326778,51714,2140.11,24.2
2587,Bayeux,Paraíba,PB,2501807,baienense,-7.1315529,-34.9322771,96880,27.54,3518.3
2602,Cabedelo,Paraíba,PB,2503209,cabedelense,-6.9877215,-34.8287221,67736,29.76,2275.8
2608,Cajazeiras,Paraíba,PB,2503704,cajazeirense,-6.8897071,-38.5612185,61993,565.9,109.5
2612,Campina Grande,Paraíba,PB,2504009,campinense,-7.2290752,-35.8808337,409731,593.03,690.9
2643,Guarabira,Paraíba,PB,2506301,guarabirense,-6.8512622,-35.4922252,58833,165.74,355.0
2697,Patos,Paraíba,PB,2510808,patense,-7.0178331,-37.275037,107605,473.06,227.5
2733,Santa Rita,Paraíba,PB,2513703,santa-ritense,-7.135868,-34.9662353,136586,728.11,187.6
2760,Sapé,Paraíba,PB,2515302,sapeense,-7.0966125,-35.2304184,52625,315.53,166.8
2772,Sousa,Paraíba,PB,2516201,sousense,-6.7519382,-38.2314566,69444,738.55,94.0
2786,Abreu e Lima,Pernambuco,PE,2600054,abreu-limense,-7.9011493,-34.8987086,99990,126.19,792.4
2798,Araripina,Pernambuco,PE,2601102,araripinense,-7.57656,-40.4976324,84418,2037.39,41.4
2799,Arcoverde,Pernambuco,PE,2601201,arcoverdense,-8.4176713,-37.0585002,74338,323.37,229.9
2804,Belo Jardim,Pernambuco,PE,2601706,belo-jardinense,-8.3357786,-36.4235973,76439,647.7,118.0
2806,Bezerros,Pernambuco,PE,2601904,bezerrense,-8.1698845,-35.784354,60798,492.63,123.4
2813,Brejo da Madre de Deus,Pernambuco,PE,2602605,brejense,-8.1405443,-36.371496,50742,762.35,66.6
2815,Buíque,Pernambuco,PE,2602803,buiquense,-8.6165115,-37.0829593,58378,1320.87,44.2
2816,Cabo de Santo Agostinho,Pernambuco,PE,2602902,cabense,-8.2794071,-35.0303459,207048,445.34,464.9
2822,Camaragibe,Pernambuco,PE,2603454,camaragibense,-8.0239216,-34.9784748,157828,51.26,3079.2
2829,Carpina,Pernambuco,PE,2604007,carpinense,-7.7935059,-35.3246769,83641,147.67,566.4
2843,Escada,Pernambuco,PE,2605202,escadense,-8.3571351,-35.2243997,68875,342.2,201.3
2852,Garanhuns,Pernambuco,PE,2606002,garanhuense,-8.8828551,-36.4968966,139788,458.55,304.8
2854,Goiana,Pernambuco,PE,2606200,goianense,-7.5630149,-35.0131428,79758,445.89,178.9
2856,Gravatá,Pernambuco,PE,2606408,gravataense,-8.2116007,-35.5677787,84074,503.95,166.8
2860,Igarassu,Pernambuco,PE,2606804,igarassuano,-7.8292242,-34.9016204,117019,305.78,382.7
2864,Ipojuca,Pernambuco,PE,2607208,ipojuquense,-8.5570521,-35.0125535,96204,521.8,184.4
2873,Jaboatão dos Guararapes,Pernambuco,PE,2607901,jaboatãoense,-8.1693806,-34.9370588,702298,258.72,2714.5
2888,Limoeiro,Pernambuco,PE,2608909,limoeirense,-7.8729849,-35.4405946,56250,273.74,205.5
2895,Moreno,Pernambuco,PE,2609402,morenense,-8.1091223,-35.0838562,62784,196.07,320.2
2897,Olinda,Pernambuco,PE,2609600,olindense,-7.9908056,-34.841629,392482,41.3,9503.2
2900,Ouricuri,Pernambuco,PE,2609907,ouricuriense,-7.8808775,-40.0810267,69459,2381.57,29.2
2901,Palmares,Pernambuco,PE,2610004,palmarense,-8.6764828,-35.5821519,63250,339.29,186.4
2907,Paudalho,Pernambuco,PE,2610608,paudalhense,-7.9032766,-35.1719495,56506,274.78,205.6
2908,Paulista,Pernambuco,PE,2610707,paulistano,-7.9181902,-34.8207597,331774,96.85,3425.8
2910,Pesqueira,Pernambuco,PE,2610905,pesqueirense,-8.3627277,-36.7388486,67395,980.88,68.7
2912,Petrolina,Pernambuco,PE,2611101,petrolinense,-9.383509,-40.5079029,349145,4561.87,76.5
2924,Salgueiro,Pernambuco,PE,2612208,salgueirense,-8.0725066,-39.1268089,60930,1678.56,36.3
2929,Santa Cruz do Capibaribe,Pernambuco,PE,2612505,santa-cruzense,-7.9484331,-36.2064182,107937,335.31,321.9
2935,São Bento do Una,Pernambuco,PE,2613008,são-bentense,-8.5236306,-36.4431999,59504,719.15,82.7
2942,São Lourenço da Mata,Pernambuco,PE,2613701,são-lourensense,-8.0075658,-35.0221895,113230,262.11,432.0
2944,Serra Talhada,Pernambuco,PE,2613909,serra-talhadense,-7.9821907,-38.2893787,86350,2980.01,29.0
2949,Surubim,Pernambuco,PE,2614501,surubinense,-7.8478439,-35.7570657,65089,252.86,257.4
2957,Timbaúba,Pernambuco,PE,2615300,timbaubense,-7.512005,-35.3168703,53022,287.68,184.3
2969,Vitória de Santo Antão,Pernambuco,PE,2616407,vitoriense,-8.1286072,-35.2979382,138757,335.94,413.0
3053,Floriano,Piauí,PI,2203909,florianense,-6.7769318,-43.0226015,59935,3409.65,17.6
3122,Parnaíba,Piauí,PI,2207702,parnaíbano,-2.9055447,-41.7733626,153078,435.94,351.1
3130,Picos,Piauí,PI,2208007,picoense,-7.0598772,-41.5012792,78222,577.3,135.5
3134,Piripiri,Piauí,PI,2208403,piripiriense,-4.3383128,-41.8402054,63742,1409.25,45.2
3687,Açu,Rio Grande do Norte,RN,2400208,açuense,-5.5774536,-36.9147407,58017,1303.44,44.5
3708,Caicó,Rio Grande do Norte,RN,2402006,caicoense,-6.4599655,-37.0936867,67952,1228.58,55.3
3714,Ceará-Mirim,Rio Grande do Norte,RN,2402600,ceará-miriense,-5.6395379,-35.4237292,73497,724.84,101.4
3762,Macaíba,Rio Grande do Norte,RN,2407104,macaibense,-5.8562141,-35.3551905,80792,510.09,158.4
3772,Mossoró,Rio Grande do Norte,RN,2408003,mossoroense,-5.1841285,-37.3477805,297378,2099.33,141.7
3782,Parnamirim,Rio Grande do Norte,RN,2403251,parnamirinense,-5.9115545,-35.2713164,261469,124.01,2108.5
3815,São Gonçalo do Amarante,Rio Grande do Norte,RN,2412005,gonçalense,-5.7852461,-35.3288131,102400,249.8,409.9
5375,Estância,Sergipe,SE,2802106,estanciano,-11.268661,-37.43854,69184,646.24,107.1
5383,Itabaiana,Sergipe,SE,2802908,itabaianense,-10.6872332,-37.4329352,95427,337.3,282.9
5389,Lagarto,Sergipe,SE,2803500,lagartense,-10.9141032,-37.6692881,104408,968.92,107.8
5403,Nossa Senhora do Socorro,Sergipe,SE,2804805,socorrense,-10.8531643,-37.1269791,183628,155.02,1184.6
5422,São Cristóvão,Sergipe,SE,2806701,são-cristóvense,-11.0089963,-37.2046907,90072,438.04,205.6
5429,Tobias Barreto,Sergipe,SE,2807402,tobiense,-11.1851883,-38.0005207,52191,1024.19,51.0
