id,cidade,estado,sigla,codigo,gentilico,latitude,longitude,populacao,area,densidade
805,Afonso Cláudio,Espírito Santo,ES,3200102,afonso-claudense,-20.0807222,-41.1602597,30586,941.19,32.5
806,Água Doce do Norte,Espírito Santo,ES,3200169,água-docense,-18.5218358,-40.9788775,11019,473.73,23.3
807,Águia Branca,Espírito Santo,ES,3200136,aguiabranquense,-18.9850498,-40.7397329,9642,454.45,21.2
808,Alegre,Espírito Santo,ES,3200201,alegrense,-20.7627978,-41.5324195,30084,772.0,39.0
809,Alfredo Chaves,Espírito Santo,ES,3200300,alfredense,-20.6362063,-40.7500672,14601,615.68,23.7
810,Alto Rio Novo,Espírito Santo,ES,3200359,alto-rio-novense,-19.0249945,-40.9788775,7836,227.62,34.4
811,Anchieta,Espírito Santo,ES,3200409,anchietense,-20.8006985,-40.6445003,29263,409.69,71.4
812,Apiacá,Espírito Santo,ES,3200508,apiacaense,-21.1537998,-41.5663989,7567,193.98,39.0
813,Aracruz,Espírito Santo,ES,3200607,aracruzense,-19.8205316,-40.2768213,101220,1420.29,71.3
814,Atilio Vivacqua,Espírito Santo,ES,3200706,atilio-vivacquense,-20.9170949,-41.1942397,11936,232.87,51.3
815,Baixo Guandu,Espírito Santo,ES,3200805,guanduense,-19.5097867,-41.0165586,30998,909.04,34.1
816,Barra de São Francisco,Espírito Santo,ES,3200904,franciscano,-18.694373,-40.8374011,44650,944.52,47.3
817,Boa Esperança,Espírito Santo,ES,3201001,esperancense,-18.4958087,-40.3292795,15037,428.72,35.1
818,Bom Jesus do Norte,Espírito Santo,ES,3201100,bom-jesuense,-21.0980507,-41.6311166,9936,89.08,111.5
819,Brejetuba,Espírito Santo,ES,3201159,brejetubense,-20.149507,-41.2922431,12404,354.4,35.0
820,Cachoeiro de Itapemirim,Espírito Santo,ES,3201209,cachoeirense,-20.8467047,-41.1202199,208972,864.58,241.7
821,Cariacica,Espírito Santo,ES,3201308,cariaciquense,-20.2642764,-40.420365,381285,279.72,1363.1
822,Castelo,Espírito Santo,ES,3201407,castelense,-20.6037462,-41.203524,37534,663.52,56.6
823,Colatina,Espírito Santo,ES,3201506,colatinense,-19.5262632,-40.6351179,122499,1398.22,87.6
824,Conceição da Barra,Espírito Santo,ES,3201605,barrense,-18.5887732,-39.736577,31063,1182.59,26.3
825,Conceição do Castelo,Espírito Santo,ES,3201704,conceiçãoense,-20.3643867,-41.2421207,12723,369.78,34.4
826,Divino de São Lourenço,Espírito Santo,ES,3201803,são-lourencense,-20.6205721,-41.6852231,4304,174.04,24.7
827,Domingos Martins,Espírito Santo,ES,3201902,martinense,-20.3608016,-40.6598433,33850,1229.21,27.5
828,Dores do Rio Preto,Espírito Santo,ES,3202009,rio-pretense,-20.6445443,-41.7904952,6749,159.3,42.4
829,Ecoporanga,Espírito Santo,ES,3202108,ecoporanguense,-18.3709127,-40.8328525,22923,2285.37,10.0
830,Fundão,Espírito Santo,ES,3202207,fundãoense,-19.9375242,-40.4081412,21509,286.85,75.0
831,Governador Lindenberg,Espírito Santo,ES,3202256,lindenberguense,-19.193467,-40.4923608,12709,360.02,35.3
832,Guaçuí,Espírito Santo,ES,3202306,guaçuiense,-20.7714101,-41.7208243,30867,468.19,65.9
833,Guarapari,Espírito Santo,ES,3202405,guarapariense,-20.6741197,-40.4997382,124859,589.83,211.7
834,Ibatiba,Espírito Santo,ES,3202454,ibatibense,-20.2351644,-41.5090668,26082,240.28,108.5
835,Ibiraçu,Espírito Santo,ES,3202504,ibiraçuense,-19.8331326,-40.3688173,12479,201.25,62.0
836,Ibitirama,Espírito Santo,ES,3202553,ibitiranense,-20.4621533,-41.7208243,8889,330.87,26.9
837,Iconha,Espírito Santo,ES,3202603,iconhense,-20.7917801,-40.813588,13860,203.53,68.1
838,Irupi,Espírito Santo,ES,3202652,irupiense,-20.3483832,-41.6385979,13377,184.81,72.4
839,Itaguaçu,Espírito Santo,ES,3202702,itaguaçuense,-19.8022734,-40.8605209,14066,535.02,26.3
840,Itapemirim,Espírito Santo,ES,3202801,itapemirinense,-20.8999339,-40.7817933,34348,550.71,62.4
841,Itarana,Espírito Santo,ES,3202900,itaranense,-19.8726384,-40.8752608,10555,295.19,35.8
842,Iúna,Espírito Santo,ES,3203007,iunense,-20.353624,-41.5338333,29161,460.59,63.3
843,Jaguaré,Espírito Santo,ES,3203056,jaguarense,-18.9055712,-40.0759186,30477,659.75,46.2
844,Jerônimo Monteiro,Espírito Santo,ES,3203106,monteirense,-20.8131981,-41.3811577,12192,162.2,75.2
845,João Neiva,Espírito Santo,ES,3203130,joão-neivense,-19.7117202,-40.4516329,16668,284.73,58.5
846,Laranja da Terra,Espírito Santo,ES,3203163,laranjense,-19.8998849,-41.0625253,10947,458.37,23.9
847,Linhares,Espírito Santo,ES,3203205,linharense,-19.3946651,-40.0652641,173555,3496.26,49.6
848,Mantenópolis,Espírito Santo,ES,3203304,mantenopolisense,-18.8619015,-41.1215853,15350,321.42,47.8
849,Marataizes,Espírito Santo,ES,3203320,marataizense,-21.045485,-40.8317367,38499,130.27,295.5
850,Marechal Floriano,Espírito Santo,ES,3203346,florianense,-20.4419793,-40.7766611,16694,285.5,58.5
851,Marilândia,Espírito Santo,ES,3203353,marilandense,-19.4118446,-40.5460295,12833,327.64,39.2
852,Mimoso do Sul,Espírito Santo,ES,3203403,mimosense,-21.0632703,-41.3619226,26153,869.44,30.1
853,Montanha,Espírito Santo,ES,3203502,montanhense,-18.1417342,-40.2680075,18833,1099.06,17.1
854,Mucurici,Espírito Santo,ES,3203601,mucuriciense,-18.0027044,-40.5127142,5524,540.53,10.2
855,Muniz Freire,Espírito Santo,ES,3203700,muniz-freirense,-20.4656769,-41.4160225,17465,678.8,25.7
856,Muqui,Espírito Santo,ES,3203809,muquiense,-20.9513517,-41.3463871,15449,327.27,47.2
857,Nova Venécia,Espírito Santo,ES,3203908,veneciano,-18.7074851,-40.3955859,50110,1439.57,34.8
858,Pancas,Espírito Santo,ES,3204005,panquense,-19.2234241,-40.8538285,23184,837.84,27.7
859,Pedro Canário,Espírito Santo,ES,3204054,canariense,-18.3008191,-39.957671,26184,433.45,60.4
860,Pinheiros,Espírito Santo,ES,3204104,pinheirense,-18.3958665,-40.1862129,27047,973.14,27.8
861,Piúma,Espírito Santo,ES,3204203,piumense,-20.8420055,-40.7357215,21711,74.05,293.2
862,Ponto Belo,Espírito Santo,ES,3204252,pontobelense,-18.123718,-40.5420832,7863,360.11,21.8
863,Presidente Kennedy,Espírito Santo,ES,3204302,kennediense,-21.1010673,-41.045155,11574,594.9,19.5
864,Rio Bananal,Espírito Santo,ES,3204351,ribanense,-19.2332476,-40.2680075,19141,641.93,29.8
865,Rio Novo do Sul,Espírito Santo,ES,3204401,novense-do-sul,-20.8250212,-40.9384914,11622,204.46,56.8
866,Santa Leopoldina,Espírito Santo,ES,3204500,leopoldinense,-20.1004038,-40.5273817,12224,718.1,17.0
867,Santa Maria de Jetibá,Espírito Santo,ES,3204559,santa-mariense,-20.025785,-40.7443164,40431,735.24,55.0
868,Santa Teresa,Espírito Santo,ES,3204609,teresense,-19.9368278,-40.5983289,23590,683.22,34.5
869,São Domingos do Norte,Espírito Santo,ES,3204658,dominguense,-19.0940049,-40.5737316,8638,298.58,28.9
870,São Gabriel da Palha,Espírito Santo,ES,3204708,gabrielense,-19.016745,-40.5381903,37947,434.89,87.3
871,São José do Calçado,Espírito Santo,ES,3204807,calçadense,-21.001985,-41.6610356,10556,273.49,38.6
872,São Mateus,Espírito Santo,ES,3204906,mateense,-18.7190705,-39.856734,130611,2346.05,55.7
873,São Roque do Canaã,Espírito Santo,ES,3204955,são-roquense,-19.7386805,-40.6594438,12415,341.94,36.3
874,Serra,Espírito Santo,ES,3205002,serrano,-20.1215224,-40.3077898,517510,547.63,945.0
875,Sooretama,Espírito Santo,ES,3205010,sooretamense,-19.0983721,-40.1862129,30070,587.04,51.2
876,Vargem Alta,Espírito Santo,ES,3205036,vargem-altense,-20.674002,-41.0098207,21402,417.76,51.2
877,Venda Nova do Imigrante,Espírito Santo,ES,3205069,venda-novense,-20.3275068,-41.1359347,25277,185.91,136.0
878,Viana,Espírito Santo,ES,3205101,vianense,-20.3646691,-40.4274631,78239,312.28,250.5
879,Vila Pavão,Espírito Santo,ES,3205150,pavoense,-18.6168033,-40.6143744,9208,433.26,21.3
880,Vila Valério,Espírito Santo,ES,3205176,vila-valense,-18.9954555,-40.3863554,14080,470.34,29.9
881,Vila Velha,Espírito Santo,ES,3205200,vila-velhense,-20.3477821,-40.2949528,493838,210.23,2349.1
882,Vitória,Espírito Santo,ES,3205309,capixaba,-20.2976178,-40.2957768,362097,97.12,3728.2
1346,Abadia dos Dourados,Minas Gerais,MG,3100104,abadiense,-18.4868538,-47.4030604,6989,881.06,7.9
1347,Abaeté,Minas Gerais,MG,3100203,abaetense,-19.157438,-45.4447859,23237,1817.07,12.8
1348,Abre Campo,Minas Gerais,MG,3100302,abre-campense,-20.2657138,-42.4528138,13454,470.55,28.6
1349,Acaiaca,Minas Gerais,MG,3100401,acaiaquense,-20.3632346,-43.1429363,3994,101.89,39.2
1350,Açucena,Minas Gerais,MG,3100500,açucenense,-19.0764128,-42.5478901,9470,815.42,11.6
1351,Água Boa,Minas Gerais,MG,3100609,água-boense,-14.047489,-52.1593834,13735,1320.26,10.4
1352,Água Comprida,Minas Gerais,MG,3100708,água-compridense,-20.0051731,-48.1002024,1999,492.17,4.1
1353,Aguanil,Minas Gerais,MG,3100807,aguanilense,-20.9671742,-45.4309775,4486,232.09,19.3
1354,Águas Formosas,Minas Gerais,MG,3100906,águas-formosense,-17.0344617,-40.9990597,19207,820.08,23.4
1355,Águas Vermelhas,Minas Gerais,MG,3101003,águas-vermelhense,-15.7311162,-41.5212742,13539,1256.61,10.8
1356,Aimorés,Minas Gerais,MG,3101102,aimorense,-19.4959312,-41.0713439,25167,1348.91,18.7
1357,Aiuruoca,Minas Gerais,MG,3101201,aiuruocano,-21.9753902,-44.6035401,6003,649.68,9.2
1358,Alagoa,Minas Gerais,MG,3101300,alagoense,-22.171467,-44.6417694,2674,161.36,16.6
1359,Albertina,Minas Gerais,MG,3101409,albertinense,-22.1944052,-46.6029812,3007,58.01,51.8
1360,Além Paraíba,Minas Gerais,MG,3101508,além-paraíbano,-21.8293292,-42.7271587,35362,510.25,69.3
1361,Alfenas,Minas Gerais,MG,3101607,alfenense,-21.4261129,-45.9481612,79996,850.45,94.1
1362,Alfredo Vasconcelos,Minas Gerais,MG,3101631,vasconcelense,-21.1448254,-43.7046653,6907,130.82,52.8
1363,Almenara,Minas Gerais,MG,3101706,almenarense,-16.1796844,-40.6953223,41896,2294.43,18.3
1364,Alpercata,Minas Gerais,MG,3101805,alpercatense,-18.9729324,-42.0187848,7424,166.97,44.5
1365,Alpinópolis,Minas Gerais,MG,3101904,alpinopolense,-20.8609004,-46.3865617,19853,454.75,43.7
1366,Alterosa,Minas Gerais,MG,3102001,alterosense,-21.2492346,-46.1391013,14466,362.01,40.0
1367,Alto Caparaó,Minas Gerais,MG,3102050,alto caparoense,-20.4667289,-41.8700097,5847,103.69,56.4
1368,Alto Jequitibá,Minas Gerais,MG,3153509,jequitibaense,-20.4442739,-41.9791516,8317,152.27,54.6
1369,Alto Rio Doce,Minas Gerais,MG,3102100,alto-rio-docense,-21.0341098,-43.3680788,11000,518.05,21.2
1370,Alvarenga,Minas Gerais,MG,3102209,alvarenguense,-19.4178864,-41.7321327,3907,278.17,14.0
1371,Alvinópolis,Minas Gerais,MG,3102308,alvinopolense,-20.10761,-43.0574762,15203,599.44,25.4
1372,Alvorada de Minas,Minas Gerais,MG,3102407,alvoradense,-18.7762079,-43.387374,3606,374.01,9.6
1373,Amparo do Serra,Minas Gerais,MG,3102506,serrense,-20.5421677,-42.8052768,4713,136.19,34.6
1374,Andradas,Minas Gerais,MG,3102605,andradense,-22.0699763,-46.5728156,41077,469.4,87.5
1375,Andrelândia,Minas Gerais,MG,3102803,andrelandense,-21.718564,-44.2857937,12224,1005.29,12.2
1376,Angelândia,Minas Gerais,MG,3102852,angelandense,-17.6784144,-42.2953964,8520,185.21,46.0
1377,Antônio Carlos,Minas Gerais,MG,3102902,antônio-carlense,-21.4416927,-43.7525619,11445,529.92,21.6
1378,Antônio Dias,Minas Gerais,MG,3103009,antônio-diense,-19.526205,-42.8247877,9318,787.06,11.8
1379,Antônio Prado de Minas,Minas Gerais,MG,3103108,pradense-de-minas,-21.0200344,-42.1473903,1598,83.8,19.1
1380,Araçaí,Minas Gerais,MG,3103207,araçaiense,-19.2405959,-44.2289441,2347,187.54,12.5
1381,Aracitaba,Minas Gerais,MG,3103306,aracitabense,-21.345109,-43.374032,2063,106.61,19.4
1382,Araçuaí,Minas Gerais,MG,3103405,araçuaiense,-16.8488172,-42.0633003,36708,2236.28,16.4
1383,Araguari,Minas Gerais,MG,3103504,araguarino,-18.6460396,-48.1938367,117267,2729.51,43.0
1384,Arantina,Minas Gerais,MG,3103603,arantinense,-21.9106617,-44.2559403,2795,89.42,31.3
1385,Araponga,Minas Gerais,MG,3103702,araponguense,-20.6690965,-42.5182528,8439,303.79,27.8
1386,Araporã,Minas Gerais,MG,3103751,araporense,-18.4760974,-49.1423666,6869,295.84,23.2
1387,Arapuá,Minas Gerais,MG,3103801,arapuaense,-19.0355245,-46.1540721,2834,173.89,16.3
1388,Araújos,Minas Gerais,MG,3103900,araujense,-19.9475164,-45.1661304,9273,245.52,37.8
1389,Araxá,Minas Gerais,MG,3104007,araxaense,-19.5906483,-46.9442412,106229,1164.06,91.3
1390,Arceburgo,Minas Gerais,MG,3104106,arceburguense,-21.3655027,-46.9418512,10772,162.88,66.1
1391,Arcos,Minas Gerais,MG,3104205,arcoense,-20.2877726,-45.5396954,40092,509.87,78.6
1392,Areado,Minas Gerais,MG,3104304,areadense,-21.357789,-46.1496185,15070,283.12,53.2
1393,Argirita,Minas Gerais,MG,3104403,argiritense,-21.6121229,-42.8365052,2727,159.38,17.1
1394,Aricanduva,Minas Gerais,MG,3104452,aricanduvense,-17.8978102,-42.6097596,5231,243.33,21.5
1395,Arinos,Minas Gerais,MG,3104502,arinense,-15.9154225,-46.1117639,17875,5279.42,3.4
1396,Astolfo Dutra,Minas Gerais,MG,3104601,astolfo-dutrense,-21.3204684,-42.8832763,14179,158.89,89.2
1397,Ataléia,Minas Gerais,MG,3104700,ataleiense,-18.1466704,-41.1602597,12868,1836.93,7.0
1398,Augusto de Lima,Minas Gerais,MG,3104809,augusto-limense,-18.1462856,-44.2099791,4869,1254.83,3.9
1399,Baependi,Minas Gerais,MG,3104908,baependiano,-21.9574833,-44.8878506,19148,750.55,25.5
1400,Baldim,Minas Gerais,MG,3105004,baldinense,-19.290363,-43.9573864,7826,556.27,14.1
1401,Bambuí,Minas Gerais,MG,3105103,bambuiense,-20.0170955,-45.9795138,23829,1455.82,16.4
1402,Bandeira,Minas Gerais,MG,3105202,bandeirense,-15.8904533,-40.5737316,4795,483.79,9.9
1403,Bandeira do Sul,Minas Gerais,MG,3105301,bandeirante-do-sul,-21.7287997,-46.3860492,5746,47.27,121.6
1404,Barão de Cocais,Minas Gerais,MG,3105400,cocaiense,-19.941666,-43.482573,32485,340.59,95.4
1405,Barão de Monte Alto,Minas Gerais,MG,3105509,monte-altense,-21.2732082,-42.2953964,5397,198.31,27.2
1406,Barbacena,Minas Gerais,MG,3105608,barbacenense,-21.2219344,-43.7706811,137313,759.19,180.9
1407,Barra Longa,Minas Gerais,MG,3105707,barra-longuense,-20.2687434,-43.0777555,5131,383.63,13.4
1408,Barroso,Minas Gerais,MG,3105905,barrosense,-21.1880429,-43.9759925,20810,82.07,253.6
1409,Bela Vista de Minas,Minas Gerais,MG,3106002,bela-vistano,-19.7631273,-43.1165621,10255,109.14,94.0
1410,Belmiro Braga,Minas Gerais,MG,3106101,belmirense,-21.9497756,-43.4156529,3429,393.09,8.7
1411,Belo Horizonte,Minas Gerais,MG,3106200,belo-horizontino,-19.9245018,-43.9352376,2512070,331.4,7580.2
1412,Belo Oriente,Minas Gerais,MG,3106309,belo-orientino,-19.2203866,-42.4831938,26700,334.91,79.7
1413,Belo Vale,Minas Gerais,MG,3106408,belo-valense,-20.4375747,-44.0579882,7715,365.92,21.1
1414,Berilo,Minas Gerais,MG,3106507,berilense,-16.8102876,-42.5117238,11932,587.11,20.3
1415,Berizal,Minas Gerais,MG,3106655,berizalense,-15.7104832,-41.7976643,4735,488.76,9.7
1416,Bertópolis,Minas Gerais,MG,3106606,bertopolitano,-16.9642193,-40.5737316,4604,427.8,10.8
1417,Betim,Minas Gerais,MG,3106705,betinense,-19.9673078,-44.2011904,439340,343.86,1277.7
1418,Bias Fortes,Minas Gerais,MG,3106804,bias-fortense,-21.60584,-43.7717073,3379,283.54,11.9
1419,Bicas,Minas Gerais,MG,3106903,biquense,-21.7171886,-43.0628041,14494,140.08,103.5
1420,Biquinhas,Minas Gerais,MG,3107000,biquinhense,-18.7491782,-45.5629394,2515,458.95,5.5
1421,Boa Esperança,Minas Gerais,MG,3107109,esperancense,-21.0928252,-45.5629603,40127,860.67,46.6
1422,Bocaina de Minas,Minas Gerais,MG,3107208,bocainense,-22.167531,-44.3947127,5090,503.77,10.1
1423,Bocaiúva,Minas Gerais,MG,3107307,bocaiuvense,-17.1113356,-43.8203315,49979,3227.63,15.5
1424,Bom Despacho,Minas Gerais,MG,3107406,bom-despachense,-19.7405507,-45.2541849,50605,1213.55,41.7
1425,Bom Jardim de Minas,Minas Gerais,MG,3107505,bom-jardinense,-21.9483692,-44.1889854,6474,412.02,15.7
1426,Bom Jesus da Penha,Minas Gerais,MG,3107604,bom-jesuense,-21.0152664,-46.5178067,4217,208.35,20.2
1427,Bom Jesus do Amparo,Minas Gerais,MG,3107703,bom-jesuense,-19.7346409,-43.4644802,6083,195.61,31.1
1428,Bom Jesus do Galho,Minas Gerais,MG,3107802,bom-jesuense,-19.7621505,-42.2756861,14935,592.29,25.2
1429,Bom Repouso,Minas Gerais,MG,3107901,bom-repousense,-22.4645574,-46.1900242,10547,229.85,45.9
1430,Bom Sucesso,Minas Gerais,MG,3108008,bom-sucessense,-21.0350635,-44.7593214,17603,705.05,25.0
1431,Bonfim,Minas Gerais,MG,3108107,bonfinense,-20.3142689,-44.2099791,6868,301.87,22.8
1432,Bonfinópolis de Minas,Minas Gerais,MG,3108206,bonfinopolitano,-16.498147,-46.1326778,5493,1850.49,3.0
1433,Bonito de Minas,Minas Gerais,MG,3108255,bonitense,-15.059475,-44.9253354,11230,3936.46,2.9
1434,Borda da Mata,Minas Gerais,MG,3108305,borda-matense,-22.2691578,-46.1640692,19412,301.11,64.5
1435,Botelhos,Minas Gerais,MG,3108404,botelhense,-21.6425842,-46.3937919,14971,334.09,44.8
1436,Botumirim,Minas Gerais,MG,3108503,botumiriense,-16.9151805,-42.9806087,6319,1568.88,4.0
1437,Brás Pires,Minas Gerais,MG,3108701,brás-pirense,-20.8675842,-43.2328033,4333,223.35,19.4
1438,Brasilândia de Minas,Minas Gerais,MG,3108552,brasilandense,-17.0003291,-46.0085333,16538,2509.69,6.6
1439,Brasília de Minas,Minas Gerais,MG,3108602,brasilminense,-16.2131693,-44.433649,32347,1399.48,23.1
1440,Brazópolis,Minas Gerais,MG,3108909,brasopolense,-22.473871,-45.6179988,14459,367.69,39.3
1441,Braúnas,Minas Gerais,MG,3108800,braunense,-19.0576546,-42.7188384,4801,378.32,12.7
1442,Brumadinho,Minas Gerais,MG,3109006,brumadinhense,-20.1514708,-44.2010909,40103,639.43,62.7
1443,Bueno Brandão,Minas Gerais,MG,3109105,bueno-brandense,-22.4784057,-46.3432781,11001,356.15,30.9
1444,Buenópolis,Minas Gerais,MG,3109204,buenopolitano,-17.9136773,-43.981812,10365,1599.88,6.5
1445,Bugre,Minas Gerais,MG,3109253,bugrense,-19.3433398,-42.3347949,3982,161.91,24.6
1446,Buritis,Minas Gerais,MG,3109303,buritisense,-15.6236442,-46.4248613,24841,5225.19,4.8
1447,Buritizeiro,Minas Gerais,MG,3109402,buritizeirense,-17.3624766,-44.9663435,28056,7218.4,3.9
1448,Cabeceira Grande,Minas Gerais,MG,3109451,cabeceirense,-16.1131002,-47.0972424,6949,1031.41,6.7
1449,Cabo Verde,Minas Gerais,MG,3109501,cabo-verdense,-21.491587,-46.400872,14075,368.21,38.2
1450,Cachoeira da Prata,Minas Gerais,MG,3109600,cachoeirense,-19.5235616,-44.4563046,3603,61.38,58.7
1451,Cachoeira de Minas,Minas Gerais,MG,3109709,cachoeirense,-22.354255,-45.7793522,11547,304.24,38.0
1452,Cachoeira de Pajeú,Minas Gerais,MG,3102704,cachoeirense,-15.9862732,-41.5612423,9412,695.67,13.5
1453,Cachoeira Dourada,Minas Gerais,MG,3109808,cachoeirense,-18.6095312,-49.5076392,2692,200.93,13.4
1454,Caetanópolis,Minas Gerais,MG,3109907,caetanopolitano,-19.3323588,-44.4181786,11624,156.04,74.5
1455,Caeté,Minas Gerais,MG,3110004,caeteense,-19.8852788,-43.6644238,44718,542.53,82.4
1456,Caiana,Minas Gerais,MG,3110103,caianense,-20.696069,-41.9296057,5496,106.47,51.6
1457,Cajuri,Minas Gerais,MG,3110202,cajuriense,-20.7767921,-42.7564668,3987,83.04,48.0
1458,Caldas,Minas Gerais,MG,3110301,caldense,-21.9234077,-46.3885416,14480,711.41,20.4
1459,Camacho,Minas Gerais,MG,3110400,camachense,-20.6268312,-45.1554398,2901,223.0,13.0
1460,Camanducaia,Minas Gerais,MG,3110509,camanducaiense,-22.748659,-46.1352278,21770,528.69,41.2
1461,Cambuí,Minas Gerais,MG,3110608,cambuiense,-22.6118831,-46.0577071,29551,244.57,120.8
1462,Cambuquira,Minas Gerais,MG,3110707,cambuquirense,-21.8657333,-45.2618568,12814,246.38,52.0
1463,Campanário,Minas Gerais,MG,3110806,campanarense,-18.2824489,-41.7407394,3721,442.4,8.4
1464,Campanha,Minas Gerais,MG,3110905,campanhense,-21.8343864,-45.3990201,16665,335.59,49.7
1465,Campestre,Minas Gerais,MG,3111002,campestrense,-21.7113788,-46.2468753,21055,577.84,36.4
1466,Campina Verde,Minas Gerais,MG,3111101,campina-verdense,-19.5387307,-49.4866375,19745,3650.75,5.4
1467,Campo Azul,Minas Gerais,MG,3111150,campoazulense,-16.5004505,-44.7568965,3817,505.91,7.5
1468,Campo Belo,Minas Gerais,MG,3111200,campo-belense,-20.8938356,-45.2721363,54029,528.23,102.3
1469,Campo do Meio,Minas Gerais,MG,3111309,campo-meiense,-21.1101207,-45.8303259,11655,275.43,42.3
1470,Campo Florido,Minas Gerais,MG,3111408,campo-floridense,-19.752931,-48.6388879,8151,1264.25,6.4
1471,Campos Altos,Minas Gerais,MG,3111507,campos-altense,-19.6807948,-46.1709012,15461,710.65,21.8
1472,Campos Gerais,Minas Gerais,MG,3111606,campos-geraiense,-21.2370782,-45.7592067,28774,769.5,37.4
1473,Cana Verde,Minas Gerais,MG,3111903,cana-verdense,-21.0422556,-45.2056196,5603,212.72,26.3
1474,Canaã,Minas Gerais,MG,3111705,canaãense,-20.6781012,-42.6097596,4563,174.9,26.1
1475,Canápolis,Minas Gerais,MG,3111804,canapolense,-18.7931976,-49.2435998,12150,839.74,14.5
1476,Candeias,Minas Gerais,MG,3112000,candeense,-20.767604,-45.2763633,14886,720.51,20.7
1477,Cantagalo,Minas Gerais,MG,3112059,cantagalense,-18.5313099,-42.6489222,4525,141.86,31.9
1478,Caparaó,Minas Gerais,MG,3112109,caparaoense,-20.5234431,-41.90769,5438,130.69,41.6
1479,Capela Nova,Minas Gerais,MG,3112208,capela-novense,-20.924024,-43.6180954,4653,111.07,41.9
1480,Capelinha,Minas Gerais,MG,3112307,capelinhense,-17.6929945,-42.5172107,37784,965.38,39.1
1481,Capetinga,Minas Gerais,MG,3112406,capetinguense,-20.6471384,-47.0388429,6920,297.94,23.2
1482,Capim Branco,Minas Gerais,MG,3112505,capim-branquense,-19.5475458,-44.1307647,9754,95.33,102.3
1483,Capinópolis,Minas Gerais,MG,3112604,capinopolino,-18.6866857,-49.5710689,16173,620.72,26.1
1484,Capitão Andrade,Minas Gerais,MG,3112653,capitão andradense,-19.0661827,-41.8203268,5468,279.09,19.6
1485,Capitão Enéas,Minas Gerais,MG,3112703,capitão-eneense,-16.3239833,-43.7154461,15234,971.58,15.7
1486,Capitólio,Minas Gerais,MG,3112802,capitolino,-20.6141323,-46.0478758,8632,521.8,16.5
1487,Caputira,Minas Gerais,MG,3112901,caputirense,-20.1705441,-42.2559685,9298,187.7,49.5
1488,Caraí,Minas Gerais,MG,3113008,caraiense,-17.2214702,-41.4812771,23685,1242.35,19.1
1489,Caranaíba,Minas Gerais,MG,3113107,caranaibense,-20.8745625,-43.7375912,3183,159.95,19.9
1490,Carandaí,Minas Gerais,MG,3113206,carandaiense,-20.9508706,-43.8028073,25501,487.28,52.3
1491,Carangola,Minas Gerais,MG,3113305,carangolense,-20.7314751,-42.0299263,33000,353.4,93.4
1492,Caratinga,Minas Gerais,MG,3113404,caratinguense,-19.7896943,-42.1415731,92062,1258.48,73.2
1493,Carbonita,Minas Gerais,MG,3113503,carbonitense,-17.4467354,-43.0971625,9405,1456.1,6.5
1494,Careaçu,Minas Gerais,MG,3113602,careaçuense,-22.0440458,-45.6973068,6757,181.01,37.3
1495,Carlos Chagas,Minas Gerais,MG,3113701,carlos-chaguense,-17.7178133,-40.8778586,18837,3202.98,5.9
1496,Carmésia,Minas Gerais,MG,3113800,carmesense,-19.0564062,-43.1359542,2632,259.1,10.2
1497,Carmo da Cachoeira,Minas Gerais,MG,3113909,carmo-cachoeirense,-21.4612439,-45.2202356,12170,506.33,24.0
1498,Carmo da Mata,Minas Gerais,MG,3114006,carmense,-20.5584753,-44.8698308,11476,357.18,32.1
1499,Carmo de Minas,Minas Gerais,MG,3114105,carmoense,-22.0646535,-45.186889,14859,322.29,46.1
1500,Carmo do Cajuru,Minas Gerais,MG,3114204,cajuruense,-20.1851206,-44.7711099,22478,455.81,49.3
1501,Carmo do Paranaíba,Minas Gerais,MG,3114303,carmense,-19.0012649,-46.3092185,30329,1307.86,23.2
1502,Carmo do Rio Claro,Minas Gerais,MG,3114402,carmelitano,-20.9384974,-46.0944845,21225,1065.69,19.9
1503,Carmópolis de Minas,Minas Gerais,MG,3114501,carmopolitano,-20.540812,-44.6386557,19355,400.01,48.4
1504,Carneirinho,Minas Gerais,MG,3114550,carneirinhense,-19.6991558,-50.7624493,10027,2063.32,4.9
1505,Carrancas,Minas Gerais,MG,3114600,carranquense,-21.4899717,-44.6453592,4047,727.89,5.6
1506,Carvalhópolis,Minas Gerais,MG,3114709,carvalhense,-21.7692649,-45.8374662,3579,81.1,44.1
1507,Carvalhos,Minas Gerais,MG,3114808,carvalhense,-22.017958,-44.5125127,4478,282.25,15.9
1508,Casa Grande,Minas Gerais,MG,3114907,casa-grandense,-20.8380202,-43.9246009,2257,157.73,14.3
1509,Cascalho Rico,Minas Gerais,MG,3115003,cascalho-riquense,-18.5823914,-47.8822604,3075,367.31,8.4
1510,Cássia,Minas Gerais,MG,3115102,cassiense,-20.5849457,-46.9191613,17740,665.8,26.6
1511,Cataguases,Minas Gerais,MG,3115300,cataguasense,-21.3892337,-42.6945496,75123,491.77,152.8
1512,Catas Altas,Minas Gerais,MG,3115359,catas-altense,-20.0867914,-43.425942,5376,240.04,22.4
1513,Catas Altas da Noruega,Minas Gerais,MG,3115409,catas-altense,-20.6690617,-43.5029884,3641,141.62,25.7
1514,Catuji,Minas Gerais,MG,3115458,catujiense,-17.3882779,-41.5012792,6311,419.38,15.0
1515,Catuti,Minas Gerais,MG,3115474,catutiense,-15.3603135,-42.9625111,4986,287.81,17.3
1516,Caxambu,Minas Gerais,MG,3115508,caxambuense,-21.9779646,-44.9331458,21656,100.48,215.5
1517,Cedro do Abaeté,Minas Gerais,MG,3115607,cedrense,-19.1056262,-45.6952715,1164,283.21,4.1
1518,Central de Minas,Minas Gerais,MG,3115706,centralense,-18.7610353,-41.3067873,7032,204.33,34.4
1519,Centralina,Minas Gerais,MG,3115805,centralinense,-18.5896126,-49.1971045,10350,327.19,31.6
1520,Chácara,Minas Gerais,MG,3115904,chacarense,-21.6796493,-43.194086,3154,152.81,20.6
1521,Chalé,Minas Gerais,MG,3116001,chaleense,-20.0352337,-41.6610356,5704,212.67,26.8
1522,Chapada do Norte,Minas Gerais,MG,3116100,chapadense,-17.1557457,-42.4135036,15356,830.83,18.5
1523,Chapada Gaúcha,Minas Gerais,MG,3116159,chapadense,-15.5694079,-45.3745358,13680,3255.19,4.2
1524,Chiador,Minas Gerais,MG,3116209,chiadorense,-21.9970073,-43.0389191,2687,252.85,10.6
1525,Cipotânea,Minas Gerais,MG,3116308,cipotanense,-20.907222,-43.3487761,6787,153.48,44.2
1526,Claraval,Minas Gerais,MG,3116407,claravalense,-20.4012575,-47.2337675,4843,227.63,21.3
1527,Claro dos Poções,Minas Gerais,MG,3116506,claro-pocense,-17.0876402,-44.2857937,7551,720.42,10.5
1528,Cláudio,Minas Gerais,MG,3116605,claudiense,-20.4438418,-44.7653198,28617,630.71,45.4
1529,Coimbra,Minas Gerais,MG,3116704,coimbraense,-20.8412518,-42.7955185,7556,106.88,70.7
1530,Coluna,Minas Gerais,MG,3116803,colunense,-18.2326706,-42.8376867,8873,348.49,25.5
1531,Comendador Gomes,Minas Gerais,MG,3116902,comendadorense,-19.6818529,-49.0817124,3111,1041.05,3.0
1532,Comercinho,Minas Gerais,MG,3117009,comerciense,-16.2968473,-41.7947938,6929,654.96,10.6
1533,Conceição da Aparecida,Minas Gerais,MG,3117108,aparecidense,-21.1137939,-46.2282927,10292,352.52,29.2
1534,Conceição da Barra de Minas,Minas Gerais,MG,3115201,conceicionense,-21.1283712,-44.4721793,3954,273.01,14.5
1535,Conceição das Alagoas,Minas Gerais,MG,3117306,garimpense,-19.9241693,-48.3811173,27893,1340.25,20.8
1536,Conceição das Pedras,Minas Gerais,MG,3117207,pedrense,-22.1549968,-45.4215658,2812,102.21,27.5
1537,Conceição de Ipanema,Minas Gerais,MG,3117405,ipanemense,-19.9194179,-41.6610356,4574,253.94,18.0
1538,Conceição do Mato Dentro,Minas Gerais,MG,3117504,conceicionense,-19.0345287,-43.4228569,17842,1720.01,10.4
1539,Conceição do Pará,Minas Gerais,MG,3117603,conceição-paraense,-19.7877348,-44.8692573,5507,250.31,22.0
1540,Conceição do Rio Verde,Minas Gerais,MG,3117702,conceicionense,-21.880357,-45.0881465,13638,369.68,36.9
1541,Conceição dos Ouros,Minas Gerais,MG,3117801,ourense,-22.4351056,-45.7710559,11638,180.24,64.6
1542,Cônego Marinho,Minas Gerais,MG,3117836,cônego marinhense,-14.9627446,-44.5878439,7642,1610.47,4.7
1543,Confins,Minas Gerais,MG,3117876,confinense,-19.6296031,-43.9901703,6730,42.36,158.9
1544,Congonhal,Minas Gerais,MG,3117900,congonhalense,-22.1541237,-46.0427891,11950,205.13,58.3
1545,Congonhas,Minas Gerais,MG,3118007,congonhense,-20.4993469,-43.8613566,54762,304.07,180.1
1546,Congonhas do Norte,Minas Gerais,MG,3118106,congonhense,-18.8107723,-43.6785377,5045,405.67,12.4
1547,Conquista,Minas Gerais,MG,3118205,conquistense,-19.9380535,-47.5442582,6939,618.36,11.2
1548,Conselheiro Lafaiete,Minas Gerais,MG,3118304,lafaietense,-20.6639305,-43.7850227,128589,370.25,347.3
1549,Conselheiro Pena,Minas Gerais,MG,3118403,conselheiro-penense,-19.1739275,-41.4733731,22921,1483.88,15.4
1550,Consolação,Minas Gerais,MG,3118502,consolense,-22.5627699,-45.9229866,1783,89.12,20.0
1551,Contagem,Minas Gerais,MG,3118601,contagense,-19.9161508,-44.0808763,663855,195.05,3403.6
1552,Coqueiral,Minas Gerais,MG,3118700,coqueirense,-21.1893557,-45.441058,9159,296.16,30.9
1553,Coração de Jesus,Minas Gerais,MG,3118809,corjesuense,-16.6842776,-44.364854,26602,2225.22,12.0
1554,Cordisburgo,Minas Gerais,MG,3118908,cordisburguense,-19.0407924,-44.2099791,8890,823.65,10.8
1555,Cordislândia,Minas Gerais,MG,3119005,cordislandense,-21.7935878,-45.6574246,3538,179.54,19.7
1556,Corinto,Minas Gerais,MG,3119104,corintiano,-18.3647127,-44.4521249,23731,2525.4,9.4
1557,Coroaci,Minas Gerais,MG,3119203,coroaciense,-18.6160477,-42.2794946,9991,576.27,17.3
1558,Coromandel,Minas Gerais,MG,3119302,coromandelense,-18.4785912,-47.1978694,27974,3313.12,8.4
1559,Coronel Fabriciano,Minas Gerais,MG,3119401,fabricianense,-19.5189752,-42.6282541,109855,221.25,496.5
1560,Coronel Murta,Minas Gerais,MG,3119500,murtense,-16.588013,-42.1967716,9222,815.41,11.3
1561,Coronel Pacheco,Minas Gerais,MG,3119609,pachequense,-21.5882924,-43.2632813,3086,131.51,23.5
1562,Coronel Xavier Chaves,Minas Gerais,MG,3119708,xavierense,-21.022122,-44.2004938,3434,140.95,24.4
1563,Córrego Danta,Minas Gerais,MG,3119807,córrego-dantense,-19.7844861,-46.018188,3215,657.43,4.9
1564,Córrego do Bom Jesus,Minas Gerais,MG,3119906,correguense,-22.6267011,-45.9991326,3704,123.65,30.0
1565,Córrego Fundo,Minas Gerais,MG,3119955,corregofundense,-20.4502059,-45.5548332,6337,101.11,62.7
1566,Córrego Novo,Minas Gerais,MG,3120003,córrego-novense,-19.8064002,-42.4528138,2771,205.39,13.5
1567,Couto de Magalhães de Minas,Minas Gerais,MG,3120102,couto-magalhense,-18.0885127,-43.425942,4410,485.65,9.1
1568,Crisólita,Minas Gerais,MG,3120151,crisolitense,-17.238629,-40.9130546,6704,966.2,6.9
1569,Cristais,Minas Gerais,MG,3120201,cristalense,-20.8740775,-45.5178387,12798,628.43,20.4
1570,Cristália,Minas Gerais,MG,3120300,cristalense,-16.7193865,-42.8661525,5971,840.7,7.1
1571,Cristiano Otoni,Minas Gerais,MG,3120409,cristianense,-20.8249342,-43.8124157,5150,132.87,38.8
1572,Cristina,Minas Gerais,MG,3120508,cristinense,-22.2102702,-45.2630555,10242,311.33,32.9
1573,Crucilândia,Minas Gerais,MG,3120607,crucilandense,-20.4034268,-44.3425754,5034,167.16,30.1
1574,Cruzeiro da Fortaleza,Minas Gerais,MG,3120706,cruzeirense,-18.9469558,-46.6732883,3626,187.72,19.3
1575,Cruzília,Minas Gerais,MG,3120805,cruzilense,-21.7651838,-44.813111,15417,522.42,29.5
1576,Cuparaque,Minas Gerais,MG,3120839,cuparaquense,-18.9690589,-41.0982464,4982,226.75,22.0
1577,Curral de Dentro,Minas Gerais,MG,3120870,curraldentense,-15.8546168,-41.8004409,7729,570.95,13.5
1578,Curvelo,Minas Gerais,MG,3120904,curvelano,-18.753199,-44.4306685,80129,3296.2,24.3
1579,Datas,Minas Gerais,MG,3121001,datense,-18.4481607,-43.6595175,5410,310.1,17.4
1580,Delfim Moreira,Minas Gerais,MG,3121100,delfinense,-22.4907716,-45.2806177,8025,408.47,19.6
1581,Delfinópolis,Minas Gerais,MG,3121209,delfinopolitano,-20.3463875,-46.8458245,7114,1378.42,5.2
1582,Delta,Minas Gerais,MG,3121258,deltense,-19.9719267,-47.7757685,10533,102.78,102.5
1583,Descoberto,Minas Gerais,MG,3121308,descobertense,-21.4487579,-42.9611571,5013,213.17,23.5
1584,Desterro de Entre Rios,Minas Gerais,MG,3121407,desterrense,-20.6604014,-44.3327715,7243,377.17,19.2
1585,Desterro do Melo,Minas Gerais,MG,3121506,melense,-21.1460856,-43.5170617,2901,142.28,20.4
1586,Diamantina,Minas Gerais,MG,3121605,diamantinense,-18.2417866,-43.6035055,47723,3891.66,12.3
1587,Diogo de Vasconcelos,Minas Gerais,MG,3121704,vasconcelense,-20.4874081,-43.2328033,3802,165.09,23.0
1588,Dionísio,Minas Gerais,MG,3121803,dionisiano,-19.8413453,-42.7765266,7729,339.38,22.8
1589,Divinésia,Minas Gerais,MG,3121902,divinesiano,-20.9903302,-43.0048871,3417,116.97,29.2
1590,Divino,Minas Gerais,MG,3122009,divinense,-20.6165787,-42.1770246,19931,337.78,59.0
1591,Divino das Laranjeiras,Minas Gerais,MG,3122108,divinense,-18.7759713,-41.47847,4979,342.25,14.5
1592,Divinolândia de Minas,Minas Gerais,MG,3122207,divinolandense,-18.8081244,-42.6097596,7571,133.12,56.9
1593,Divinópolis,Minas Gerais,MG,3122306,divinopolitano,-20.1451261,-44.8916447,238230,708.12,336.4
1594,Divisa Alegre,Minas Gerais,MG,3122355,divisalegrense,-15.7067219,-41.3811577,6786,117.8,57.6
1595,Divisa Nova,Minas Gerais,MG,3122405,divisa-novense,-21.5301056,-46.2282927,6011,216.96,27.7
1596,Divisópolis,Minas Gerais,MG,3122454,divisopolense,-15.755418,-40.9182876,11019,572.93,19.2
1597,Dom Bosco,Minas Gerais,MG,3122470,dom bosquense,-16.7334719,-46.3240951,3677,817.38,4.5
1598,Dom Cavati,Minas Gerais,MG,3122504,dom-cavatiano,-19.3846368,-42.0880724,5072,59.52,85.2
1599,Dom Joaquim,Minas Gerais,MG,3122603,dom-joaquinense,-18.9669615,-43.2551602,4195,398.82,10.5
1600,Dom Silvério,Minas Gerais,MG,3122702,dom-silveriense,-20.1517978,-42.9611571,5237,194.97,26.9
1601,Dom Viçoso,Minas Gerais,MG,3122801,dom-viçosense,-22.2136237,-45.1307427,3001,113.92,26.3
1602,Dona Eusébia,Minas Gerais,MG,3122900,euzebense,-21.3193426,-42.7955185,6572,70.23,93.6
1603,Dores de Campos,Minas Gerais,MG,3123007,dorense,-21.1094506,-44.0206193,10153,124.84,81.3
1604,Dores de Guanhães,Minas Gerais,MG,3123106,dorense,-19.0611625,-42.9222315,5169,382.12,13.5
1605,Dores do Indaiá,Minas Gerais,MG,3123205,dorense,-19.4608252,-45.596316,13483,1111.2,12.1
1606,Dores do Turvo,Minas Gerais,MG,3123304,dorense,-20.974998,-43.1890712,4259,231.17,18.4
1607,Doresópolis,Minas Gerais,MG,3123403,doresopolitano,-20.2879237,-45.8849587,1527,152.91,10.0
1608,Douradoquara,Minas Gerais,MG,3123502,douradoquarense,-18.4442911,-47.5864964,1908,312.88,6.1
1609,Durandé,Minas Gerais,MG,3123528,durandeense,-20.1552325,-41.7805477,7841,217.46,36.1
1610,Elói Mendes,Minas Gerais,MG,3123601,elói-mendense,-21.6177232,-45.5818214,28076,499.54,56.2
1611,Engenheiro Caldas,Minas Gerais,MG,3123700,engenheiro-caldense,-19.199592,-42.0469455,11134,187.06,59.5
1612,Engenheiro Navarro,Minas Gerais,MG,3123809,navarrense,-17.2980684,-44.0579882,7242,608.31,11.9
1613,Entre Folhas,Minas Gerais,MG,3123858,entrefolhense,-19.6461661,-42.2461069,5370,85.39,62.9
1614,Entre Rios de Minas,Minas Gerais,MG,3123908,entrerrianos,-20.7387451,-44.0579882,15298,456.8,33.5
1615,Ervália,Minas Gerais,MG,3124005,ervalense,-20.8375261,-42.6562703,18895,357.49,52.9
1616,Esmeraldas,Minas Gerais,MG,3124104,esmeraldense,-19.7656001,-44.2857937,70552,909.68,77.6
1617,Espera Feliz,Minas Gerais,MG,3124203,espera-felizense,-20.652053,-41.9091561,24951,317.64,78.6
1618,Espinosa,Minas Gerais,MG,3124302,espinosense,-14.9256971,-42.8168003,31617,1868.97,16.9
1619,Espírito Santo do Dourado,Minas Gerais,MG,3124401,douradense,-22.0471159,-45.9513337,4692,263.88,17.8
1620,Estiva,Minas Gerais,MG,3124500,estivense,-22.4753947,-45.9991326,11354,243.87,46.6
1621,Estrela Dalva,Minas Gerais,MG,3124609,estrela-dalvense,-21.7428116,-42.4619531,2343,131.37,17.8
1622,Estrela do Indaiá,Minas Gerais,MG,3124708,estrelense,-19.5643687,-45.7900209,3500,635.98,5.5
1623,Estrela do Sul,Minas Gerais,MG,3124807,estrela-sulense,-18.7451193,-47.692697,7978,822.45,9.7
1624,Eugenópolis,Minas Gerais,MG,3124906,eugenopolense,-21.0159418,-42.2559685,11275,309.4,36.4
1625,Ewbank da Câmara,Minas Gerais,MG,3125002,ewbanquense,-21.5736071,-43.5510816,3913,103.83,37.7
1626,Extrema,Minas Gerais,MG,3125101,extremense,-22.854505,-46.3184212,36225,244.58,148.1
1627,Fama,Minas Gerais,MG,3125200,famense,-21.4676645,-45.8089934,2377,86.02,27.6
1628,Faria Lemos,Minas Gerais,MG,3125309,faria-lemense,-20.7860449,-42.0286885,3241,165.22,19.6
1629,Felício dos Santos,Minas Gerais,MG,3125408,feliz-santense,-18.0779087,-43.2503796,4753,357.62,13.3
1630,Felisburgo,Minas Gerais,MG,3125606,felisburguense,-16.6327314,-40.7564002,7457,596.22,12.5
1631,Felixlândia,Minas Gerais,MG,3125705,felixlandense,-18.7135827,-44.9253354,15336,1554.63,9.9
1632,Fernandes Tourinho,Minas Gerais,MG,3125804,fernandes-tourinhense,-19.1040816,-42.0979633,3431,151.88,22.6
1633,Ferros,Minas Gerais,MG,3125903,ferrense,-19.2754916,-42.9027576,9820,1088.79,9.0
1634,Fervedouro,Minas Gerais,MG,3125952,fervedourense,-20.7260722,-42.2762515,11006,357.68,30.8
1635,Florestal,Minas Gerais,MG,3126000,florestalense,-19.8680623,-44.4370606,7461,194.24,38.4
1636,Formiga,Minas Gerais,MG,3126109,formiguense,-20.4623459,-45.4272185,67683,1501.92,45.1
1637,Formoso,Minas Gerais,MG,3126208,formosense,-14.9450825,-46.2374957,9562,3686.0,2.6
1638,Fortaleza de Minas,Minas Gerais,MG,3126307,fortalezense,-20.9056243,-46.7671967,4412,218.79,20.2
1639,Fortuna de Minas,Minas Gerais,MG,3126406,fortunense,-19.562964,-44.4480709,2947,198.71,14.8
1640,Francisco Badaró,Minas Gerais,MG,3126505,badarosense,-16.9594175,-42.2953964,10332,461.48,22.4
1641,Francisco Dumont,Minas Gerais,MG,3126604,francisco-dumonsense,-17.3113283,-44.2320548,5215,1576.13,3.3
1642,Francisco Sá,Minas Gerais,MG,3126703,francisco-saense,-16.4786577,-43.4911222,26277,2747.3,9.6
1643,Franciscópolis,Minas Gerais,MG,3126752,franciscopolitano,-18.0143073,-41.9593241,5391,717.09,7.5
1644,Frei Gaspar,Minas Gerais,MG,3126802,frei-gasparense,-18.1400375,-41.4812771,5880,626.67,9.4
1645,Frei Inocêncio,Minas Gerais,MG,3126901,frei-inocenciano,-18.5625262,-41.9067341,9611,469.56,20.5
1646,Frei Lagonegro,Minas Gerais,MG,3126950,frei lagonegrense,-18.1677897,-42.7663945,3478,167.47,20.8
1647,Fronteira,Minas Gerais,MG,3127008,fronteirense,-20.2819164,-49.2030593,18103,199.99,90.5
1648,Fronteira dos Vales,Minas Gerais,MG,3127057,fronteirista-dos-vales,-16.9058828,-40.8171615,4581,320.76,14.3
1649,Fruta de Leite,Minas Gerais,MG,3127073,fruta de leitense,-16.1161571,-42.5267462,5369,762.84,7.0
1650,Frutal,Minas Gerais,MG,3127107,frutalense,-20.0264222,-48.9360129,59496,2426.97,24.5
1651,Funilândia,Minas Gerais,MG,3127206,funilandense,-19.369193,-44.0597068,4349,199.8,21.8
1652,Galiléia,Minas Gerais,MG,3127305,galileense,-19.0009454,-41.539043,6817,720.36,9.5
1653,Gameleiras,Minas Gerais,MG,3127339,gameleirense,-14.9831646,-43.2908233,5109,1733.2,2.9
1654,Glaucilândia,Minas Gerais,MG,3127354,glaucilandense,-16.9055659,-43.6567219,3150,145.86,21.6
1655,Goiabeira,Minas Gerais,MG,3127370,goiabeirense,-18.981141,-41.2239132,3353,112.44,29.8
1656,Goianá,Minas Gerais,MG,3127388,goianaense,-21.5652838,-43.194086,3966,152.04,26.1
1657,Gonçalves,Minas Gerais,MG,3127404,gonçalvense,-22.6593169,-45.8544526,4350,187.35,23.2
1658,Gonzaga,Minas Gerais,MG,3127503,gonzaguense,-18.8791902,-42.4920945,6158,209.35,29.4
1659,Gouveia,Minas Gerais,MG,3127602,gouveano,-18.5547431,-43.8290988,11825,866.6,13.6
1660,Governador Valadares,Minas Gerais,MG,3127701,valadarense,-18.8549317,-41.9559233,279885,2342.33,119.5
1661,Grão Mogol,Minas Gerais,MG,3127800,grão-mogolense,-16.5653347,-42.8932343,15836,3885.29,4.1
1662,Grupiara,Minas Gerais,MG,3127909,grupiarense,-18.4600595,-47.7834888,1388,193.14,7.2
1663,Guanhães,Minas Gerais,MG,3128006,guanhanense,-18.7710458,-42.9318193,34319,1075.12,31.9
1664,Guapé,Minas Gerais,MG,3128105,guapense,-20.7635618,-45.9156637,14245,934.35,15.2
1665,Guaraciaba,Minas Gerais,MG,3128204,guaraciabense,-20.5470397,-43.0389191,10324,348.6,29.6
1666,Guaraciama,Minas Gerais,MG,3128253,guaraciamense,-17.1254353,-43.599128,4972,390.26,12.7
1667,Guaranésia,Minas Gerais,MG,3128303,guaranesiano,-21.3018381,-46.7984745,19021,294.83,64.5
1668,Guarani,Minas Gerais,MG,3128402,guaraniense,-21.359905,-43.0446895,8911,264.19,33.7
1669,Guarará,Minas Gerais,MG,3128501,guararense,-21.7613406,-43.0292053,3796,88.66,42.8
1670,Guarda-Mor,Minas Gerais,MG,3128600,guarda-morense,-17.7893536,-47.058302,6580,2069.8,3.2
1671,Guaxupé,Minas Gerais,MG,3128709,guaxupeano,-21.3054884,-46.7084932,51917,286.4,181.3
1672,Guidoval,Minas Gerais,MG,3128808,guidovalense,-21.165853,-42.7662325,7078,158.38,44.7
1673,Guimarânia,Minas Gerais,MG,3128907,guimaranense,-18.8605771,-46.7091767,8039,366.83,21.9
1674,Guiricema,Minas Gerais,MG,3129004,guiricemense,-20.9987031,-42.6880552,8392,293.58,28.6
1675,Gurinhatã,Minas Gerais,MG,3129103,gurinhantense,-19.2122353,-49.7861219,5639,1849.14,3.0
1676,Heliodora,Minas Gerais,MG,3129202,heliodorense,-22.056078,-45.544065,6558,153.95,42.6
1677,Iapu,Minas Gerais,MG,3129301,iapuense,-19.2892488,-42.2559685,11004,340.58,32.3
1678,Ibertioga,Minas Gerais,MG,3129400,ibertiogano,-21.4423437,-43.981812,5021,346.24,14.5
1679,Ibiá,Minas Gerais,MG,3129509,ibiaense,-19.4878116,-46.5450499,25199,2704.13,9.3
1680,Ibiaí,Minas Gerais,MG,3129608,ibiaiense,-16.7959458,-44.813111,8395,874.76,9.6
1681,Ibiracatu,Minas Gerais,MG,3129657,ibiracatuense,-15.707686,-44.153039,5400,353.41,15.3
1682,Ibiraci,Minas Gerais,MG,3129707,ibiraciense,-20.4615342,-47.1225911,13828,562.1,24.6
1683,Ibirité,Minas Gerais,MG,3129806,ibiritenense,-20.0256695,-44.0572964,180204,72.57,2483.1
1684,Ibitiúra de Minas,Minas Gerais,MG,3129905,ibitiurense,-22.0625996,-46.4406019,3488,68.32,51.1
1685,Ibituruna,Minas Gerais,MG,3130002,ibiturunense,-21.1522427,-44.7488651,2989,153.11,19.5
1686,Icaraí de Minas,Minas Gerais,MG,3130051,icaraiense,-16.2174411,-44.903849,11990,625.66,19.2
1687,Igarapé,Minas Gerais,MG,3130101,igarapeense,-20.0711891,-44.2999506,43045,110.94,388.0
1688,Igaratinga,Minas Gerais,MG,3130200,igaratinguense,-19.9500459,-44.7111149,10860,218.34,49.7
1689,Iguatama,Minas Gerais,MG,3130309,iguatamense,-20.1641236,-45.7900209,7947,628.2,12.7
1690,Ijaci,Minas Gerais,MG,3130408,ijaciense,-21.1742912,-44.9236552,6550,105.25,62.2
1691,Ilicínea,Minas Gerais,MG,3130507,ilicineaense,-20.9382789,-45.8272383,12375,376.34,32.9
1692,Imbé de Minas,Minas Gerais,MG,3130556,imbeense,-19.5978162,-41.9791516,6903,196.74,35.1
1693,Inconfidentes,Minas Gerais,MG,3130606,inconfidentino,-22.3387242,-46.2665911,7328,149.61,49.0
1694,Indaiabira,Minas Gerais,MG,3130655,indaiabirense,-15.5549492,-42.1177396,7351,1004.15,7.3
1695,Indianópolis,Minas Gerais,MG,3130705,indianopolense,-19.0346082,-47.9159006,6891,830.03,8.3
1696,Ingaí,Minas Gerais,MG,3130804,ingaiense,-21.4016728,-44.9187409,2767,305.59,9.1
1697,Inhapim,Minas Gerais,MG,3130903,inhapinhense,-19.4665851,-41.8997976,24140,858.02,28.1
1698,Inhaúma,Minas Gerais,MG,3131000,inhaumense,-19.4903208,-44.3938098,6271,245.0,25.6
1699,Inimutaba,Minas Gerais,MG,3131109,inimutabano,-18.7197117,-44.2857937,7515,527.06,14.3
1700,Ipaba,Minas Gerais,MG,3131158,ipabense,-19.4143627,-42.4150592,18607,113.25,164.3
1701,Ipanema,Minas Gerais,MG,3131208,ipanemense,-19.7995283,-41.7168497,19861,456.64,43.5
1702,Ipatinga,Minas Gerais,MG,3131307,ipatinguense,-19.4707617,-42.5480125,263410,164.88,1597.5
1703,Ipiaçu,Minas Gerais,MG,3131406,ipiaçuense,-18.6931915,-49.9440634,4221,466.02,9.1
1704,Ipuiúna,Minas Gerais,MG,3131505,ipuiunense,-22.0981239,-46.1892555,10079,298.2,33.8
1705,Iraí de Minas,Minas Gerais,MG,3131604,iraiense,-19.0585683,-47.4686543,6987,356.26,19.6
1706,Itabira,Minas Gerais,MG,3131703,itabirano,-19.6244172,-43.2316363,120060,1253.7,95.8
1707,Itabirinha,Minas Gerais,MG,3131802,itabirense,-18.5683321,-41.2344778,11512,209.03,55.1
1708,Itabirito,Minas Gerais,MG,3131901,itabiritense,-20.2530617,-43.8030567,51875,542.61,95.6
1709,Itacambira,Minas Gerais,MG,3132008,itacambirano,-16.9090341,-43.2908233,5385,1788.45,3.0
1710,Itacarambi,Minas Gerais,MG,3132107,itacarambiense,-15.0738149,-44.1340439,18153,1225.27,14.8
1711,Itaguara,Minas Gerais,MG,3132206,itaguarense,-20.3861211,-44.4771596,13358,410.47,32.5
1712,Itaipé,Minas Gerais,MG,3132305,itaipeense,-17.3338793,-41.6410914,12760,480.83,26.5
1713,Itajubá,Minas Gerais,MG,3132404,itajubense,-22.422971,-45.4602511,96869,294.84,328.6
1714,Itamarandiba,Minas Gerais,MG,3132503,itamarandibano,-17.857298,-42.8583915,34735,2735.57,12.7
1715,Itamarati de Minas,Minas Gerais,MG,3132602,tamaratiense,-21.4218687,-42.8345405,4355,94.57,46.1
1716,Itambacuri,Minas Gerais,MG,3132701,itambacuriense,-18.0341181,-41.6833474,23211,1419.21,16.4
1717,Itambé do Mato Dentro,Minas Gerais,MG,3132800,itambeense,-19.3912185,-43.3487761,2081,380.34,5.5
1718,Itamogi,Minas Gerais,MG,3132909,itamogiense,-21.0787458,-47.0490631,10192,243.71,41.8
1719,Itamonte,Minas Gerais,MG,3133006,itamontense,-22.2864039,-44.8684468,15579,431.79,36.1
1720,Itanhandu,Minas Gerais,MG,3133105,itanhanduense,-22.2947567,-44.9371333,15331,143.36,106.9
1721,Itanhomi,Minas Gerais,MG,3133204,itanhomense,-19.1814137,-41.8203268,12228,488.84,25.0
1722,Itaobim,Minas Gerais,MG,3133303,itaobinhense,-16.5585736,-41.5025529,21062,679.02,31.0
1723,Itapagipe,Minas Gerais,MG,3133402,itapagipense,-19.7706354,-49.4059435,15243,1802.44,8.5
1724,Itapecerica,Minas Gerais,MG,3133501,itapecericano,-20.4719298,-45.124195,21762,1040.52,20.9
1725,Itapeva,Minas Gerais,MG,3133600,itapevense,-22.7050814,-46.2282927,9783,177.35,55.2
1726,Itatiaiuçu,Minas Gerais,MG,3133709,itatiaiuçuense,-20.2174463,-44.455935,11146,295.15,37.8
1727,Itaú de Minas,Minas Gerais,MG,3133758,itauense,-20.7534878,-46.7671967,16108,153.42,105.0
1728,Itaúna,Minas Gerais,MG,3133808,itaunense,-20.0822785,-44.5805309,93214,495.77,188.0
1729,Itaverava,Minas Gerais,MG,3133907,itaveravense,-20.6707092,-43.6183335,5419,284.22,19.1
1730,Itinga,Minas Gerais,MG,3134004,itinguense,-16.6075502,-41.7680418,14990,1649.62,9.1
1731,Itueta,Minas Gerais,MG,3134103,ituetano,-19.3410515,-41.0998636,6051,452.68,13.4
1732,Ituiutaba,Minas Gerais,MG,3134202,ituiutabano,-18.9745738,-49.4600885,104671,2598.05,40.3
1733,Itumirim,Minas Gerais,MG,3134301,itumirinense,-21.31632,-44.813111,6023,234.8,25.7
1734,Iturama,Minas Gerais,MG,3134400,ituramense,-19.7280301,-50.1970234,39263,1404.66,28.0
1735,Itutinga,Minas Gerais,MG,3134509,itutinguense,-21.3665378,-44.7193823,3788,372.02,10.2
1736,Jaboticatubas,Minas Gerais,MG,3134608,jaboticatubense,-19.5181791,-43.7462156,20143,1114.97,18.1
1737,Jacinto,Minas Gerais,MG,3134707,jacintense,-16.1900857,-40.3496894,12326,1393.61,8.8
1738,Jacuí,Minas Gerais,MG,3134806,jacuiense,-21.0175161,-46.7443029,7686,409.23,18.8
1739,Jacutinga,Minas Gerais,MG,3134905,jacutinguense,-22.2832272,-46.6089256,25979,347.67,74.7
1740,Jaguaraçu,Minas Gerais,MG,3135001,jaguaraçuense,-19.6432519,-42.7173856,3133,163.76,19.1
1741,Jaíba,Minas Gerais,MG,3135050,jaibense,-15.3400572,-43.6769104,38909,2635.47,14.8
1742,Jampruca,Minas Gerais,MG,3135076,jampruquense,-18.4601687,-41.7208243,5404,517.1,10.5
1743,Janaúba,Minas Gerais,MG,3135100,janaubense,-15.8052004,-43.3147032,71648,2181.32,32.8
1744,Januária,Minas Gerais,MG,3135209,januarense,-15.4806094,-44.3642956,67742,6661.59,10.2
1745,Japaraíba,Minas Gerais,MG,3135308,japaraíbano,-20.1306358,-45.506339,4350,172.14,25.3
1746,Japonvar,Minas Gerais,MG,3135357,japonvaense,-15.9976635,-44.2728796,7969,375.23,21.2
1747,Jeceaba,Minas Gerais,MG,3135407,jeceabense,-20.537708,-44.0389554,4912,236.25,20.8
1748,Jenipapo de Minas,Minas Gerais,MG,3135456,jenipapense,-17.0835978,-42.2593261,7692,284.45,27.0
1749,Jequeri,Minas Gerais,MG,3135506,jequeriense,-20.4544642,-42.6655174,12386,547.9,22.6
1750,Jequitaí,Minas Gerais,MG,3135605,jequitaiense,-17.1935192,-44.4370606,7531,1268.44,5.9
1751,Jequitibá,Minas Gerais,MG,3135704,jequitibaense,-19.2349683,-44.0308121,5211,445.03,11.7
1752,Jequitinhonha,Minas Gerais,MG,3135803,jequitinhonhense,-16.4510937,-41.0394028,25391,3514.22,7.2
1753,Jesuânia,Minas Gerais,MG,3135902,jesuanense,-22.003327,-45.2806177,4787,153.85,31.1
1754,Joaíma,Minas Gerais,MG,3136009,joaimense,-16.7567067,-41.0394028,15432,1664.19,9.3
1755,Joanésia,Minas Gerais,MG,3136108,joanense,-19.2043,-42.6880552,4573,233.29,19.6
1756,João Monlevade,Minas Gerais,MG,3136207,monlevadense,-19.8131282,-43.1738765,79910,99.16,805.9
1757,João Pinheiro,Minas Gerais,MG,3136306,pinheirense,-17.7405182,-46.1741639,47452,10727.47,4.4
1758,Joaquim Felício,Minas Gerais,MG,3136405,feliciano,-17.7587902,-44.1707325,4695,790.94,5.9
1759,Jordânia,Minas Gerais,MG,3136504,jordainense,-15.9013894,-40.1844228,10812,546.71,19.8
1760,José Gonçalves de Minas,Minas Gerais,MG,3136520,gonçalvense,-16.920689,-42.6684924,4501,381.33,11.8
1761,José Raydan,Minas Gerais,MG,3136553,josé raydanense,-18.2328381,-42.4920945,4995,180.82,27.6
1762,Josenópolis,Minas Gerais,MG,3136579,josenopolense,-16.5650366,-42.5901672,4867,541.39,9.0
1763,Juatuba,Minas Gerais,MG,3136652,juatubense,-19.9433029,-44.3413836,26946,97.17,277.3
1764,Juiz de Fora,Minas Gerais,MG,3136702,juiz-forano,-21.7624237,-43.3433999,568873,1435.75,396.2
1765,Juramento,Minas Gerais,MG,3136801,juramentense,-16.8482204,-43.5222313,4331,431.63,10.0
1766,Juruaia,Minas Gerais,MG,3136900,juruaiense,-21.2516873,-46.5806482,10563,220.35,47.9
1767,Juvenília,Minas Gerais,MG,3136959,juveniliense,-14.3837913,-43.981812,5724,1064.69,5.4
1768,Ladainha,Minas Gerais,MG,3137007,ladainhense,-17.5981969,-41.8004409,18111,866.29,20.9
1769,Lagamar,Minas Gerais,MG,3137106,lagamaraense,-18.1557751,-46.7478493,7613,1474.56,5.2
1770,Lagoa da Prata,Minas Gerais,MG,3137205,lago-pratense,-20.0242053,-45.5405732,52165,439.98,118.6
1771,Lagoa dos Patos,Minas Gerais,MG,3137304,lagoa-patense,-16.9822655,-44.5801672,4102,600.55,6.8
1772,Lagoa Dourada,Minas Gerais,MG,3137403,lagoense,-20.8894314,-44.0579882,13009,476.69,27.3
1773,Lagoa Formosa,Minas Gerais,MG,3137502,lagoense,-18.7749394,-46.4061804,18052,840.92,21.5
1774,Lagoa Grande,Minas Gerais,MG,3137536,lagoa grandense,-17.7433666,-46.4777687,9532,1236.3,7.7
1775,Lagoa Santa,Minas Gerais,MG,3137601,lagoa-santense,-19.6303019,-43.8983031,64527,229.41,281.3
1776,Lajinha,Minas Gerais,MG,3137700,lajinhense,-20.1217728,-41.5612423,19923,431.92,46.1
1777,Lambari,Minas Gerais,MG,3137809,lambariense,-21.9678712,-45.3484727,20814,213.11,97.7
1778,Lamim,Minas Gerais,MG,3137908,laminense,-20.7904859,-43.4710264,3391,118.6,28.6
1779,Laranjal,Minas Gerais,MG,3138005,laranjalense,-21.3719703,-42.4735553,6810,204.88,33.2
1780,Lassance,Minas Gerais,MG,3138104,lassancense,-17.8718104,-44.7756422,6512,3204.22,2.0
1781,Lavras,Minas Gerais,MG,3138203,lavrense,-21.2484875,-45.0013747,103773,564.74,183.8
1782,Leandro Ferreira,Minas Gerais,MG,3138302,leandrense,-19.7172319,-45.022901,3229,352.01,9.2
1783,Leme do Prado,Minas Gerais,MG,3138351,lemepradense,-17.0508494,-42.7466993,4918,280.04,17.6
1784,Leopoldina,Minas Gerais,MG,3138401,leopoldinense,-21.5301251,-42.642529,52587,943.08,55.8
1785,Liberdade,Minas Gerais,MG,3138500,libertense,-22.0264348,-44.3195311,5069,401.34,12.6
1786,Lima Duarte,Minas Gerais,MG,3138609,limaduartino,-21.839869,-43.7919976,16698,848.56,19.7
1787,Limeira do Oeste,Minas Gerais,MG,3138625,limeirense,-19.390396,-50.6378804,7536,1319.04,5.7
1788,Lontra,Minas Gerais,MG,3138658,lontrense,-15.8616171,-44.2668514,9661,258.87,37.3
1789,Luisburgo,Minas Gerais,MG,3138674,luisburguense,-20.4209185,-42.0583886,6266,145.42,43.1
1790,Luislândia,Minas Gerais,MG,3138682,luislandense,-16.1167825,-44.5873074,6699,411.71,16.3
1791,Luminárias,Minas Gerais,MG,3138708,luminarense,-21.5107696,-44.9041132,5446,500.14,10.9
1792,Luz,Minas Gerais,MG,3138807,luzense,-19.7912637,-45.6763443,18215,1171.66,15.5
1793,Machacalis,Minas Gerais,MG,3138906,machacalisense,-17.0764835,-40.7191184,7111,332.38,21.4
1794,Machado,Minas Gerais,MG,3139003,machadense,-21.6782427,-45.9223323,42133,585.96,71.9
1795,Madre de Deus de Minas,Minas Gerais,MG,3139102,madre-deusense,-21.4675062,-44.3614875,5098,492.91,10.3
1796,Malacacheta,Minas Gerais,MG,3139201,malacachetense,-17.8442329,-42.0789785,18650,727.89,25.6
1797,Mamonas,Minas Gerais,MG,3139250,mamonense,-15.0051021,-42.9611571,6543,284.37,23.0
1798,Manga,Minas Gerais,MG,3139300,manguense,-14.6651796,-44.1720266,18407,1950.18,9.4
1799,Manhuaçu,Minas Gerais,MG,3139409,manhuaçuense,-20.2555875,-42.030947,90229,628.32,143.6
1800,Manhumirim,Minas Gerais,MG,3139508,manhumiriense,-20.3596744,-41.9589374,22707,182.9,124.1
1801,Mantena,Minas Gerais,MG,3139607,mantenense,-18.7765523,-40.9877527,27644,685.21,40.3
1802,Mar de Espanha,Minas Gerais,MG,3139805,mar-de-espanhense,-21.8621018,-43.0078303,12814,371.6,34.5
1803,Maravilhas,Minas Gerais,MG,3139706,maravilhense,-19.5118239,-44.6818377,7976,261.6,30.5
1804,Maria da Fé,Minas Gerais,MG,3139904,mariense,-22.3070493,-45.3773778,14095,202.9,69.5
1805,Mariana,Minas Gerais,MG,3140001,marianense,-20.3652719,-43.4150073,60724,1194.21,50.8
1806,Marilac,Minas Gerais,MG,3140100,marilaquense,-18.4541454,-42.0979633,4115,158.81,25.9
1807,Mário Campos,Minas Gerais,MG,3140159,mario-campense,-20.0698627,-44.1815176,15416,35.2,438.0
1808,Maripá de Minas,Minas Gerais,MG,3140209,maripaense,-21.6907303,-42.9514285,2973,77.34,38.4
1809,Marliéria,Minas Gerais,MG,3140308,marlierense,-19.7471902,-42.5901672,4039,545.81,7.4
1810,Marmelópolis,Minas Gerais,MG,3140407,marmelopolense,-22.4492906,-45.1653743,2755,107.9,25.5
1811,Martinho Campos,Minas Gerais,MG,3140506,martinho-campense,-19.352516,-45.2243578,13388,1058.42,12.6
1812,Martins Soares,Minas Gerais,MG,3140530,martinsoarense,-20.2550497,-41.8789881,8417,113.27,74.3
1813,Mata Verde,Minas Gerais,MG,3140555,mataverdense,-15.7485661,-40.6955747,8586,227.54,37.7
1814,Materlândia,Minas Gerais,MG,3140605,materlandiense,-18.4603499,-43.0389191,4459,280.53,15.9
1815,Mateus Leme,Minas Gerais,MG,3140704,mateus-lemense,-20.017643,-44.4370606,31086,301.38,103.1
1816,Mathias Lobato,Minas Gerais,MG,3171501,matiense,-18.5754491,-41.9174548,3203,172.3,18.6
1817,Matias Barbosa,Minas Gerais,MG,3140803,matiense,-21.8680209,-43.3177168,14468,157.07,92.1
1818,Matias Cardoso,Minas Gerais,MG,3140852,matiense,-14.9196341,-43.7142484,11157,1940.6,5.7
1819,Matipó,Minas Gerais,MG,3140902,matipoense,-20.3007479,-42.3347949,18908,266.99,70.8
1820,Mato Verde,Minas Gerais,MG,3141009,mato-verdense,-15.3950895,-42.8608526,12459,472.25,26.4
1821,Matozinhos,Minas Gerais,MG,3141108,matozinhense,-19.5229728,-44.0389554,37820,252.28,149.9
1822,Matutina,Minas Gerais,MG,3141207,matutinense,-19.2084774,-46.0372508,3749,260.96,14.4
1823,Medeiros,Minas Gerais,MG,3141306,medeirense,-19.9536578,-46.3240951,3802,946.44,4.0
1824,Medina,Minas Gerais,MG,3141405,medinense,-16.2246048,-41.471521,20820,1435.9,14.5
1825,Mendes Pimentel,Minas Gerais,MG,3141504,pimentelense,-18.6577332,-41.4020432,6446,305.51,21.1
1826,Mercês,Minas Gerais,MG,3141603,mercesano,-21.1855322,-43.3101484,10739,348.27,30.8
1827,Mesquita,Minas Gerais,MG,3141702,mesquitense,-19.2242621,-42.6081935,5605,274.94,20.4
1828,Minas Novas,Minas Gerais,MG,3141801,minas-novense,-17.3104025,-42.4724578,31484,1812.4,17.4
1829,Minduri,Minas Gerais,MG,3141900,mindurense,-21.6802026,-44.6055196,3894,219.77,17.7
1830,Mirabela,Minas Gerais,MG,3142007,mirabelense,-16.2442611,-44.1340439,13589,723.28,18.8
1831,Miradouro,Minas Gerais,MG,3142106,miradourense,-20.8901602,-42.3435982,10754,301.67,35.6
1832,Miraí,Minas Gerais,MG,3142205,miraiense,-21.196919,-42.6141813,15014,320.7,46.8
1833,Miravânia,Minas Gerais,MG,3142254,miravaniense,-14.782589,-44.4370606,4888,602.13,8.1
1834,Moeda,Minas Gerais,MG,3142304,moedense,-20.3314696,-44.0539299,4919,155.11,31.7
1835,Moema,Minas Gerais,MG,3142403,moemense,-19.83939,-45.4130349,7517,202.71,37.1
1836,Monjolos,Minas Gerais,MG,3142502,monjolense,-18.3390751,-44.0579882,2220,650.91,3.4
1837,Monsenhor Paulo,Minas Gerais,MG,3142601,paulense,-21.7298505,-45.4686431,8688,216.54,40.1
1838,Montalvânia,Minas Gerais,MG,3142700,montalvanense,-14.4487104,-44.4748018,14877,1503.76,9.9
1839,Monte Alegre de Minas,Minas Gerais,MG,3142809,monte-alegrense,-18.8729755,-48.8770507,21120,2595.96,8.1
1840,Monte Azul,Minas Gerais,MG,3142908,monte-azulense,-15.2036298,-42.9806087,20854,1001.3,20.8
1841,Monte Belo,Minas Gerais,MG,3143005,monte-belano,-21.3221066,-46.3688171,13166,421.28,31.3
1842,Monte Carmelo,Minas Gerais,MG,3143104,carmelitano,-18.7024324,-47.4882762,47809,1343.04,35.6
1843,Monte Formoso,Minas Gerais,MG,3143153,monte formosense,-16.8750768,-41.260776,4906,385.55,12.7
1844,Monte Santo de Minas,Minas Gerais,MG,3143203,monte-santense,-21.1885821,-46.9766949,21524,594.63,36.2
1845,Monte Sião,Minas Gerais,MG,3143401,monte-sionense,-22.4341513,-46.5734184,23803,291.59,81.6
1846,Montes Claros,Minas Gerais,MG,3143302,montes-clarense,-16.7286406,-43.8582139,409341,3568.94,114.7
1847,Montezuma,Minas Gerais,MG,3143450,montesumense,-15.1831503,-42.4331624,8249,1130.42,7.3
1848,Morada Nova de Minas,Minas Gerais,MG,3143500,moradense,-18.603899,-45.3582493,8863,2084.28,4.3
1849,Morro da Garça,Minas Gerais,MG,3143609,morrense,-18.6315682,-44.6442629,2462,414.77,5.9
1850,Morro do Pilar,Minas Gerais,MG,3143708,morrense,-19.2155418,-43.3680788,3182,477.55,6.7
1851,Munhoz,Minas Gerais,MG,3143807,munhozense,-22.6124587,-46.3630169,6029,191.56,31.5
1852,Muriaé,Minas Gerais,MG,3143906,muriaense,-21.1291403,-42.3702252,108763,841.69,129.2
1853,Mutum,Minas Gerais,MG,3144003,mutuense,-19.8141208,-41.4402619,26979,1250.82,21.6
1854,Muzambinho,Minas Gerais,MG,3144102,muzambinhense,-21.3696392,-46.5217365,20569,409.95,50.2
1855,Nacip Raydan,Minas Gerais,MG,3144201,nacipense,-18.4708148,-42.1770246,3220,233.49,13.8
1856,Nanuque,Minas Gerais,MG,3144300,nanuquense,-17.8395468,-40.3490627,40750,1518.17,26.8
1857,Naque,Minas Gerais,MG,3144359,naquense,-19.190484,-42.3347949,6996,127.17,55.0
1858,Natalândia,Minas Gerais,MG,3144375,natalandense,-16.5070745,-46.4944793,3311,468.66,7.1
1859,Natércia,Minas Gerais,MG,3144409,naterciano,-22.1162424,-45.5127166,4730,188.72,25.1
1860,Nazareno,Minas Gerais,MG,3144508,nazarenense,-21.2205255,-44.610684,8608,341.45,25.2
1861,Nepomuceno,Minas Gerais,MG,3144607,nepomucenense,-21.2335652,-45.2325476,26769,582.55,46.0
1862,Ninheira,Minas Gerais,MG,3144656,ninheirense,-15.3190393,-41.7542938,10295,1108.26,9.3
1863,Nova Belém,Minas Gerais,MG,3144672,belenense,-18.4901361,-41.0998636,3190,146.78,21.7
1864,Nova Era,Minas Gerais,MG,3144706,nova-erense,-19.7659667,-43.0354257,17578,361.93,48.6
1865,Nova Lima,Minas Gerais,MG,3144805,nova-limense,-19.9930478,-43.8485566,94889,429.0,221.2
1866,Nova Módica,Minas Gerais,MG,3144904,neomodicano,-18.4505365,-41.5412618,3600,375.97,9.6
1867,Nova Ponte,Minas Gerais,MG,3145000,nova-pontense,-19.226306,-47.7243139,15545,1111.01,14.0
1868,Nova Porteirinha,Minas Gerais,MG,3145059,novaporteirinhense,-15.7436288,-43.2714907,7500,120.94,62.0
1869,Nova Resende,Minas Gerais,MG,3145109,resendense,-21.1123858,-46.400872,16723,390.15,42.9
1870,Nova Serrana,Minas Gerais,MG,3145208,nova-serranense,-19.8717775,-44.9850828,102693,282.47,363.6
1871,Nova União,Minas Gerais,MG,3136603,nova-uniense,-19.662086,-43.5799151,5725,172.13,33.3
1872,Novo Cruzeiro,Minas Gerais,MG,3145307,novo-cruzeirense,-17.4328946,-41.9989718,31331,1702.98,18.4
1873,Novo Oriente de Minas,Minas Gerais,MG,3145356,novo orientense,-17.4137025,-41.2193521,10755,755.15,14.2
1874,Novorizonte,Minas Gerais,MG,3145372,novorizontino,-16.0275507,-42.4135036,5299,271.61,19.5
1875,Olaria,Minas Gerais,MG,3145406,olariense,-21.9210054,-43.9627492,1747,178.24,9.8
1876,Olhos-d'Água,Minas Gerais,MG,3145455,olhos-d'aguense,-17.4235127,-43.599128,6096,2092.08,2.9
1877,Olímpio Noronha,Minas Gerais,MG,3145505,olímpio-noroense,-22.0909033,-45.290001,2787,54.63,51.0
1878,Oliveira,Minas Gerais,MG,3145604,oliveirense,-20.6984299,-44.8256777,41687,897.29,46.5
1879,Oliveira Fortes,Minas Gerais,MG,3145703,oliveira-fortense,-21.3392925,-43.5126108,2133,111.13,19.2
1880,Onça de Pitangui,Minas Gerais,MG,3145802,oncense,-19.7116418,-44.7568965,3148,246.98,12.7
1881,Oratórios,Minas Gerais,MG,3145851,oratoriense,-20.4210364,-42.7955185,4655,89.07,52.3
1882,Orizânia,Minas Gerais,MG,3145877,orizanense,-20.5278988,-42.2165112,8018,121.8,65.8
1883,Ouro Branco,Minas Gerais,MG,3145901,ouro-branquense,-9.1622013,-37.3587137,39500,258.73,152.7
1884,Ouro Fino,Minas Gerais,MG,3146008,ouro-finense,-22.2508537,-46.400872,33639,533.71,63.0
1885,Ouro Preto,Minas Gerais,MG,3146107,ouro-pretano,-20.3855743,-43.5035777,74281,1245.87,59.6
1886,Ouro Verde de Minas,Minas Gerais,MG,3146206,ouro-verdense,-18.0687145,-41.2710171,5934,175.48,33.8
1887,Padre Carvalho,Minas Gerais,MG,3146255,padre carvaliense,-16.2887356,-42.5705674,6378,446.28,14.3
1888,Padre Paraíso,Minas Gerais,MG,3146305,padre-paraisense,-17.0490108,-41.5612423,20154,544.38,37.0
1889,Pai Pedro,Minas Gerais,MG,3146552,paipedrense,-15.5362405,-43.1359542,6089,839.81,7.3
1890,Paineiras,Minas Gerais,MG,3146404,paineirense,-18.9368219,-45.506339,4486,637.31,7.0
1891,Pains,Minas Gerais,MG,3146503,painense,-20.3734781,-45.6618213,8283,421.86,19.6
1892,Paiva,Minas Gerais,MG,3146602,paivense,-21.2892927,-43.4173045,1529,58.42,26.2
1893,Palma,Minas Gerais,MG,3146701,palmense,-21.4149514,-42.3347949,6616,316.48,20.9
1894,Palmópolis,Minas Gerais,MG,3146750,palmopolense,-16.7814241,-40.3700923,5507,433.15,12.7
1895,Papagaios,Minas Gerais,MG,3146909,papagaiense,-19.3501941,-44.6630541,15674,553.58,28.3
1896,Pará de Minas,Minas Gerais,MG,3147105,paraense,-19.8600249,-44.6075839,93969,551.25,170.5
1897,Paracatu,Minas Gerais,MG,3147006,paracatuense,-17.2174522,-46.8711355,93158,8229.59,11.3
1898,Paraguaçu,Minas Gerais,MG,3147204,paraguaçuense,-21.5679739,-45.7142063,21513,424.3,50.7
1899,Paraisópolis,Minas Gerais,MG,3147303,paraisopolense,-22.548794,-45.7750681,21083,331.24,63.6
1900,Paraopeba,Minas Gerais,MG,3147402,paraopebense,-19.2784382,-44.4062327,24540,625.62,39.2
1901,Passa Quatro,Minas Gerais,MG,3147600,passa-quatrense,-22.3988138,-44.9813452,16344,277.22,59.0
1902,Passa Tempo,Minas Gerais,MG,3147709,passa-tempense,-20.6672558,-44.5125127,8084,429.17,18.8
1903,Passa-Vinte,Minas Gerais,MG,3147808,passa-vintense,-22.1958903,-44.2668514,2039,246.57,8.3
1904,Passabém,Minas Gerais,MG,3147501,passabenense,-19.372519,-43.1553389,1649,94.18,17.5
1905,Passos,Minas Gerais,MG,3147907,passense,-20.7221434,-46.6133353,114679,1338.07,85.7
1906,Patis,Minas Gerais,MG,3147956,patiense,-16.097342,-44.1340439,5972,444.2,13.4
1907,Patos de Minas,Minas Gerais,MG,3148004,patense,-18.5872582,-46.5146749,152488,3190.19,47.8
1908,Patrocínio,Minas Gerais,MG,3148103,patrocinense,-18.9383312,-46.9938375,90757,2874.34,31.6
1909,Patrocínio do Muriaé,Minas Gerais,MG,3148202,patrocinense,-21.1548752,-42.2128932,5684,108.25,52.5
1910,Paula Cândido,Minas Gerais,MG,3148301,paula-candense,-20.850899,-42.9806087,9571,268.32,35.7
1911,Paulistas,Minas Gerais,MG,3148400,paulistano,-18.46609,-42.8832763,4830,220.56,21.9
1912,Pavão,Minas Gerais,MG,3148509,pavoense,-17.4749434,-41.0797172,8450,601.19,14.1
1913,Peçanha,Minas Gerais,MG,3148608,peçanhense,-18.5503279,-42.5117238,17541,996.65,17.6
1914,Pedra Azul,Minas Gerais,MG,3148707,pedra-azulense,-16.003696,-41.2817406,24324,1594.65,15.3
1915,Pedra Bonita,Minas Gerais,MG,3148756,pedrabonitense,-20.4424784,-42.374164,7097,173.93,40.8
1916,Pedra do Anta,Minas Gerais,MG,3148806,antense,-20.604146,-42.7271587,3052,173.17,17.6
1917,Pedra do Indaiá,Minas Gerais,MG,3148905,andaiaense,-20.2952095,-45.2618568,3972,347.92,11.4
1918,Pedra Dourada,Minas Gerais,MG,3149002,douradense,-20.8208362,-42.1375086,2504,69.99,35.8
1919,Pedralva,Minas Gerais,MG,3149101,pedralvense,-22.2557397,-45.4686431,11195,217.99,51.4
1920,Pedras de Maria da Cruz,Minas Gerais,MG,3149150,pedrense,-15.6192904,-44.2857937,12107,1525.49,7.9
1921,Pedrinópolis,Minas Gerais,MG,3149200,pedrinopolense,-19.184046,-47.5079055,3635,357.89,10.2
1922,Pedro Leopoldo,Minas Gerais,MG,3149309,pedro-leopoldense,-19.6189005,-44.0404979,64258,292.95,219.4
1923,Pedro Teixeira,Minas Gerais,MG,3149408,pedro-teixeirense,-21.7320716,-43.7334089,1807,112.96,16.0
1924,Pequeri,Minas Gerais,MG,3149507,pequeriense,-21.8364393,-43.1204098,3320,90.83,36.6
1925,Pequi,Minas Gerais,MG,3149606,pequiense,-19.5980091,-44.6442629,4406,203.99,21.6
1926,Perdigão,Minas Gerais,MG,3149705,perdiguense,-19.9497868,-45.0559871,11506,249.32,46.1
1927,Perdizes,Minas Gerais,MG,3149804,perdizense,-19.3473585,-47.2142417,16168,2451.11,6.6
1928,Perdões,Minas Gerais,MG,3149903,perdoense,-21.0964587,-45.0879046,21390,270.66,79.0
1929,Periquito,Minas Gerais,MG,3149952,periquitense,-19.0709126,-42.2165112,6810,228.91,29.8
1930,Pescador,Minas Gerais,MG,3150000,pescadorense,-18.3353443,-41.5412618,4252,317.46,13.4
1931,Piau,Minas Gerais,MG,3150109,piauense,-21.4899225,-43.3101484,2748,192.2,14.3
1932,Piedade de Caratinga,Minas Gerais,MG,3150158,piedade-caratinguense,-19.7672394,-42.0583886,8566,109.35,78.3
1933,Piedade de Ponte Nova,Minas Gerais,MG,3150208,piedadense,-20.2345623,-42.7173856,4140,83.73,49.4
1934,Piedade do Rio Grande,Minas Gerais,MG,3150307,piedadense,-21.4676623,-44.1340439,4497,322.81,13.9
1935,Piedade dos Gerais,Minas Gerais,MG,3150406,piedadense,-20.4704064,-44.2242862,4982,259.64,19.2
1936,Pimenta,Minas Gerais,MG,3150505,pimentense,-20.4832009,-45.8053083,8660,414.97,20.9
1937,Pingo-d'Água,Minas Gerais,MG,3150539,pingodaguense,-19.7480502,-42.4233339,4941,66.57,74.2
1938,Pintópolis,Minas Gerais,MG,3150570,pintopolense,-16.0564145,-45.1459469,7507,1228.74,6.1
1939,Piracema,Minas Gerais,MG,3150604,piracemense,-20.5291465,-44.4181786,6409,280.34,22.9
1940,Pirajuba,Minas Gerais,MG,3150703,pirajubense,-19.9096734,-48.7031408,6199,337.98,18.3
1941,Piranga,Minas Gerais,MG,3150802,piranguense,-20.6024306,-43.2908233,17626,658.81,26.8
1942,Piranguçu,Minas Gerais,MG,3150901,piranguçuense,-22.5254214,-45.4949622,5472,203.62,26.9
1943,Piranguinho,Minas Gerais,MG,3151008,piranguinhense,-22.4028697,-45.5338991,8596,124.8,68.9
1944,Pirapetinga,Minas Gerais,MG,3151107,pirapetinguense,-21.6720154,-42.374164,10752,190.68,56.4
1945,Pirapora,Minas Gerais,MG,3151206,piraporense,-17.3435064,-44.9230576,56428,549.51,102.7
1946,Piraúba,Minas Gerais,MG,3151305,piraubano,-21.2701663,-43.0266691,10787,144.29,74.8
1947,Pitangui,Minas Gerais,MG,3151404,pitanguense,-19.5774563,-44.8879576,27989,569.64,49.1
1948,Piumhi,Minas Gerais,MG,3151503,piuiense,-20.4742488,-45.9619861,34691,902.47,38.4
1949,Planura,Minas Gerais,MG,3151602,planurense,-20.1382605,-48.7008259,12133,317.52,38.2
1950,Poço Fundo,Minas Gerais,MG,3151701,poço-fundense,-21.8201436,-46.018188,16791,474.24,35.4
1951,Poços de Caldas,Minas Gerais,MG,3151800,poços-caldense,-21.7853787,-46.5619303,167397,546.96,306.1
1952,Pocrane,Minas Gerais,MG,3151909,pocranense,-19.580955,-41.5612423,8432,691.07,12.2
1953,Pompéu,Minas Gerais,MG,3152006,pompeano,-19.2236514,-45.0056921,31812,2551.07,12.5
1954,Ponte Nova,Minas Gerais,MG,3152105,ponte-novense,-20.4115862,-42.8982244,59742,470.64,126.9
1955,Ponto Chique,Minas Gerais,MG,3152131,ponto chiquense,-16.5358715,-45.0373171,4261,602.8,7.1
1956,Ponto dos Volantes,Minas Gerais,MG,3152170,ponto volantense,-16.7538643,-41.5071325,12121,1212.41,10.0
1957,Porteirinha,Minas Gerais,MG,3152204,porteirinhense,-15.7031964,-43.058341,37906,1749.68,21.7
1958,Porto Firme,Minas Gerais,MG,3152303,porto-firmense,-20.6493425,-43.0777555,11279,284.78,39.6
1959,Poté,Minas Gerais,MG,3152402,poteense,-17.8270725,-41.8004409,16555,625.11,26.5
1960,Pouso Alegre,Minas Gerais,MG,3152501,pouso-alegrense,-22.2480373,-45.9420118,150737,542.8,277.7
1961,Pouso Alto,Minas Gerais,MG,3152600,pouso-altense,-22.1875563,-44.9440129,5940,263.03,22.6
1962,Prados,Minas Gerais,MG,3152709,pradense,-21.0575749,-44.0785286,9031,264.12,34.2
1963,Prata,Minas Gerais,MG,3152808,pratense,-19.3100889,-48.9277508,27856,4847.54,5.7
1964,Pratápolis,Minas Gerais,MG,3152907,pratapolense,-20.7896516,-46.8834379,8603,215.52,39.9
1965,Pratinha,Minas Gerais,MG,3153004,pratinhense,-19.7506217,-46.400872,3603,622.48,5.8
1966,Presidente Bernardes,Minas Gerais,MG,3153103,bernardense,-20.7684902,-43.1867782,5369,236.8,22.7
1967,Presidente Juscelino,Minas Gerais,MG,3153202,juscelinense,-18.7123463,-44.0579882,3641,695.88,5.2
1968,Presidente Kubitschek,Minas Gerais,MG,3153301,kubitschekano,-18.6454895,-43.5799151,3002,189.24,15.9
1969,Presidente Olegário,Minas Gerais,MG,3153400,olegariense,-18.4100897,-46.4168827,19573,3503.74,5.6
1970,Prudente de Morais,Minas Gerais,MG,3153608,prudentino,-19.4748432,-44.1592102,10733,124.19,86.4
1971,Quartel Geral,Minas Gerais,MG,3153707,quartelense,-19.270633,-45.5629394,3563,556.44,6.4
1972,Queluzito,Minas Gerais,MG,3153806,queluzitano,-20.7370051,-43.8864226,1939,153.56,12.6
1973,Raposos,Minas Gerais,MG,3153905,raposense,-19.9808219,-43.7717073,16354,72.23,226.4
1974,Raul Soares,Minas Gerais,MG,3154002,raul-soarense,-20.1013284,-42.452666,23762,763.36,31.1
1975,Recreio,Minas Gerais,MG,3154101,recreiense ou recreense,-21.5320586,-42.4528138,10517,234.3,44.9
1976,Reduto,Minas Gerais,MG,3154150,redutense,-20.224748,-41.9394892,7154,151.86,47.1
1977,Resende Costa,Minas Gerais,MG,3154200,resende-costense,-20.8158114,-44.2857937,11500,618.31,18.6
1978,Resplendor,Minas Gerais,MG,3154309,resplendorense,-19.3244052,-41.2513685,17397,1081.8,16.1
1979,Ressaquinha,Minas Gerais,MG,3154408,ressaquinhense,-21.0627353,-43.7624513,4808,183.06,26.3
1980,Riachinho,Minas Gerais,MG,3154457,riachiense,-16.271096,-45.8279734,8136,1719.27,4.7
1981,Riacho dos Machados,Minas Gerais,MG,3154507,riachense,-16.019369,-42.9806087,9481,1315.54,7.2
1982,Ribeirão das Neves,Minas Gerais,MG,3154606,nevense,-19.7618937,-44.0853128,334858,155.45,2154.1
1983,Ribeirão Vermelho,Minas Gerais,MG,3154705,ribeirense,-21.1540674,-45.0653249,4033,49.25,81.9
1984,Rio Acima,Minas Gerais,MG,3154804,rio-acimense,-20.0883098,-43.7910446,10312,229.81,44.9
1985,Rio Casca,Minas Gerais,MG,3154903,rio-casquense,-20.1574053,-42.6880552,13564,384.38,35.3
1986,Rio do Prado,Minas Gerais,MG,3155108,rio-pradense,-16.6950288,-40.5737316,5150,479.82,10.7
1987,Rio Doce,Minas Gerais,MG,3155009,rio-docense,-20.2140691,-42.9124955,2610,112.09,23.3
1988,Rio Espera,Minas Gerais,MG,3155207,rio-esperense,-20.8586098,-43.5029884,5474,238.6,22.9
1989,Rio Manso,Minas Gerais,MG,3155306,rio-mansense,-20.2670203,-44.3074982,5832,231.54,25.2
1990,Rio Novo,Minas Gerais,MG,3155405,rio-novense,-21.4633212,-43.1553389,8949,209.31,42.8
1991,Rio Paranaíba,Minas Gerais,MG,3155504,rio-paraibano,-19.1978017,-46.2368452,12313,1352.35,9.1
1992,Rio Pardo de Minas,Minas Gerais,MG,3155603,rio-pardense,-15.61649,-42.54089,30914,3117.68,9.9
1993,Rio Piracicaba,Minas Gerais,MG,3155702,piracicabense,-19.9661142,-43.1359542,14339,373.04,38.4
1994,Rio Pomba,Minas Gerais,MG,3155801,rio-pombense,-21.2688048,-43.1824468,17910,252.42,71.0
1995,Rio Preto,Minas Gerais,MG,3155900,rio-pretense,-22.0865846,-43.8297431,5476,348.05,15.7
1996,Rio Vermelho,Minas Gerais,MG,3156007,rio-vermelhense,-18.2473581,-43.058341,12846,986.56,13.0
1997,Ritápolis,Minas Gerais,MG,3156106,ritapolitano,-21.025634,-44.3237755,4604,404.81,11.4
1998,Rochedo de Minas,Minas Gerais,MG,3156205,rochedense,-21.628496,-43.0193232,2305,79.4,29.0
1999,Rodeiro,Minas Gerais,MG,3156304,rodeirense,-21.217993,-42.8442913,8109,72.67,111.6
2000,Romaria,Minas Gerais,MG,3156403,romariense,-18.8766544,-47.5668376,3533,407.56,8.7
2001,Rosário da Limeira,Minas Gerais,MG,3156452,limeirense,-20.9888775,-42.5019101,4594,111.16,41.3
2002,Rubelita,Minas Gerais,MG,3156502,rubelitense,-16.3619832,-42.1967716,5995,1110.3,5.4
2003,Rubim,Minas Gerais,MG,3156601,rubinense,-16.519664,-40.4425922,10241,965.17,10.6
2004,Sabará,Minas Gerais,MG,3156700,sabaraense,-19.8845263,-43.826722,136344,302.42,450.8
2005,Sabinópolis,Minas Gerais,MG,3156809,sabinopolense,-18.6248754,-43.058341,15470,919.81,16.8
2006,Sacramento,Minas Gerais,MG,3156908,sacramentense,-19.8626448,-47.4512654,26185,3073.27,8.5
2007,Salinas,Minas Gerais,MG,3157005,salinense,-16.0802242,-42.1177396,41527,1862.12,22.3
2008,Salto da Divisa,Minas Gerais,MG,3157104,saltense,-16.1102256,-40.0222864,7009,938.01,7.5
2009,Santa Bárbara,Minas Gerais,MG,3157203,santa-barbarense,-19.9608408,-43.4105526,31324,684.06,45.8
2010,Santa Bárbara do Leste,Minas Gerais,MG,3157252,santa barbarense,-19.9748223,-42.1375086,8147,107.4,75.9
2011,Santa Bárbara do Monte Verde,Minas Gerais,MG,3157278,barbarense,-21.9722085,-43.6950804,3150,417.93,7.5
2012,Santa Bárbara do Tugúrio,Minas Gerais,MG,3157302,tugurense,-21.2636003,-43.5414667,4430,194.56,22.8
2013,Santa Cruz de Minas,Minas Gerais,MG,3157336,santacruzense,-21.1209929,-44.2218331,8604,3.57,2413.5
2014,Santa Cruz de Salinas,Minas Gerais,MG,3157377,santacruzense,-16.0808238,-41.8004409,4142,589.61,7.0
2015,Santa Cruz do Escalvado,Minas Gerais,MG,3157401,santa-cruzense,-20.2368121,-42.8052768,4758,258.73,18.4
2016,Santa Efigênia de Minas,Minas Gerais,MG,3157500,santa-efigense,-18.8630983,-42.4135036,4409,131.97,33.4
2017,Santa Fé de Minas,Minas Gerais,MG,3157609,santa-feense,-16.7783359,-45.5251982,3846,2917.45,1.3
2018,Santa Helena de Minas,Minas Gerais,MG,3157658,santaelenense de minas,-16.9063365,-40.6549888,6366,276.43,23.0
2019,Santa Juliana,Minas Gerais,MG,3157708,santa-julianense,-19.3882364,-47.4882762,14003,723.78,19.3
2020,Santa Luzia,Minas Gerais,MG,3157807,luziense,-19.7882663,-43.9403221,219134,235.08,932.2
2021,Santa Margarida,Minas Gerais,MG,3157906,santa-margaridense,-20.4393069,-42.2559685,16208,255.73,63.4
2022,Santa Maria de Itabira,Minas Gerais,MG,3158003,santa-mariense,-19.4047062,-42.9806087,10847,597.44,18.2
2023,Santa Maria do Salto,Minas Gerais,MG,3158102,santa-mariense,-16.3227651,-40.1043057,5232,440.61,11.9
2024,Santa Maria do Suaçuí,Minas Gerais,MG,3158201,santa-mariense,-18.1900991,-42.4182151,14615,624.05,23.4
2025,Santa Rita de Caldas,Minas Gerais,MG,3159209,santa-ritense,-22.0294189,-46.3368853,8949,503.01,17.8
2026,Santa Rita de Ibitipoca,Minas Gerais,MG,3159407,ibitipoquense,-21.5934083,-43.9246009,3425,324.23,10.6
2027,Santa Rita de Jacutinga,Minas Gerais,MG,3159308,santa-ritense,-22.1464084,-44.0911576,4884,420.94,11.6
2028,Santa Rita de Minas,Minas Gerais,MG,3159357,santa-ritense,-19.8720916,-42.127625,7212,68.15,105.8
2029,Santa Rita do Itueto,Minas Gerais,MG,3159506,santa-ritense,-19.3937878,-41.401196,5489,485.08,11.3
2030,Santa Rita do Sapucaí,Minas Gerais,MG,3159605,santa-ritense,-22.2200666,-45.6385125,43260,352.97,122.6
2031,Santa Rosa da Serra,Minas Gerais,MG,3159704,rosalense,-19.5721007,-45.9991326,3350,284.33,11.8
2032,Santa Vitória,Minas Gerais,MG,3159803,santa-vitoriense,-18.8404184,-50.1212423,19742,3001.36,6.6
2033,Santana da Vargem,Minas Gerais,MG,3158300,vargense,-21.2670478,-45.544065,7100,172.44,41.2
2034,Santana de Cataguases,Minas Gerais,MG,3158409,santanense,-21.3033722,-42.5705674,3872,161.49,24.0
2035,Santana de Pirapama,Minas Gerais,MG,3158508,pirapamenho,-18.9069152,-43.9055155,7642,1255.83,6.1
2036,Santana do Deserto,Minas Gerais,MG,3158607,santanense,-21.9465964,-43.194086,3976,182.66,21.8
2037,Santana do Garambéu,Minas Gerais,MG,3158706,santanense,-21.6185585,-44.0770134,2458,203.07,12.1
2038,Santana do Jacaré,Minas Gerais,MG,3158805,santanense,-20.880517,-45.0559871,4821,106.17,45.4
2039,Santana do Manhuaçu,Minas Gerais,MG,3158904,santanense,-20.1069533,-41.92596,8674,347.36,25.0
2040,Santana do Paraíso,Minas Gerais,MG,3158953,paraisense,-19.3882364,-42.5117238,34663,276.07,125.6
2041,Santana do Riacho,Minas Gerais,MG,3159001,riachense,-19.2000924,-43.6759049,4295,677.21,6.3
2042,Santana dos Montes,Minas Gerais,MG,3159100,santanense,-20.8099796,-43.6567219,3777,196.57,19.2
2043,Santo Antônio do Amparo,Minas Gerais,MG,3159902,amparense,-20.9475888,-44.913073,18525,488.89,37.9
2044,Santo Antônio do Aventureiro,Minas Gerais,MG,3160009,aventureirense,-21.7572695,-42.8167314,3602,202.03,17.8
2045,Santo Antônio do Grama,Minas Gerais,MG,3160108,gramense,-20.3336969,-42.6097596,3911,130.21,30.0
2046,Santo Antônio do Itambé,Minas Gerais,MG,3160207,itambeano,-18.4702703,-43.2714907,3838,305.74,12.6
2047,Santo Antônio do Jacinto,Minas Gerais,MG,3160306,santo-antoniense,-16.4923732,-40.2884386,11640,503.71,23.1
2048,Santo Antônio do Monte,Minas Gerais,MG,3160405,santo-antoniense,-20.0859007,-45.2957103,28243,1125.78,25.1
2049,Santo Antônio do Retiro,Minas Gerais,MG,3160454,retirense,-15.276996,-42.6684924,7277,796.29,9.1
2050,Santo Antônio do Rio Abaixo,Minas Gerais,MG,3160504,santo-antoniense,-19.2362846,-43.2328033,1765,107.27,16.5
2051,Santo Hipólito,Minas Gerais,MG,3160603,santo-hipolitense,-18.4661452,-44.1340439,3087,430.66,7.2
2052,Santos Dumont,Minas Gerais,MG,3160702,sandumonense,-21.4559669,-43.5519463,46487,637.37,72.9
2053,São Bento Abade,Minas Gerais,MG,3160801,são-bentista,-21.564758,-45.0653249,5286,80.4,65.7
2054,São Brás do Suaçuí,Minas Gerais,MG,3160900,suaçuiense,-20.6372767,-43.9627492,3738,110.02,34.0
2055,São Domingos das Dores,Minas Gerais,MG,3160959,sandominguense,-19.5165438,-42.0286885,5644,60.87,92.7
2056,São Domingos do Prata,Minas Gerais,MG,3161007,pratense,-19.867924,-42.9684305,17359,743.77,23.3
2057,São Félix de Minas,Minas Gerais,MG,3161056,são felense,-18.5871673,-41.4612677,3369,162.56,20.7
2058,São Francisco,Minas Gerais,MG,3161106,são-franciscano,-15.9516274,-44.8590264,56323,3308.1,17.0
2059,São Francisco de Paula,Minas Gerais,MG,3161205,francisco-paulense,-20.7190711,-44.9813452,6527,316.82,20.6
2060,São Francisco de Sales,Minas Gerais,MG,3161304,são-francisco-salense,-19.8029455,-49.8137871,6238,1128.86,5.5
2061,São Francisco do Glória,Minas Gerais,MG,3161403,são-franciscano-do-glória,-20.7902788,-42.2681456,4844,164.61,29.4
2062,São Geraldo,Minas Gerais,MG,3161502,são-geraldense,-20.9121921,-42.8442913,12366,185.58,66.6
2063,São Geraldo da Piedade,Minas Gerais,MG,3161601,são-geraldense,-18.8960652,-42.2953964,3962,152.34,26.0
2064,São Geraldo do Baixio,Minas Gerais,MG,3161650,baixiense,-18.9168025,-41.3811577,4012,280.95,14.3
2065,São Gonçalo do Abaeté,Minas Gerais,MG,3161700,são-gonçalense,-18.3409078,-45.8336296,8389,2692.17,3.1
2066,São Gonçalo do Pará,Minas Gerais,MG,3161809,são-gonçalense,-19.9856514,-44.831834,12411,265.73,46.7
2067,São Gonçalo do Rio Abaixo,Minas Gerais,MG,3161908,são-gonçalense,-19.8189246,-43.3101484,10920,363.83,30.0
2068,São Gonçalo do Rio Preto,Minas Gerais,MG,3125507,são-gonçalense,-18.0724967,-43.3487761,3167,314.46,10.1
2069,São Gonçalo do Sapucaí,Minas Gerais,MG,3162005,são-gonçalense,-21.8930428,-45.5939292,25449,516.68,49.3
2070,São Gotardo,Minas Gerais,MG,3162104,são-gotardense,-19.3107686,-46.0489795,35469,866.09,41.0
2071,São João Batista do Glória,Minas Gerais,MG,3162203,gloriense,-20.635088,-46.5054905,7453,547.91,13.6
2072,São João da Lagoa,Minas Gerais,MG,3162252,lagoano,-16.8989006,-44.4370606,4915,998.02,4.9
2073,São João da Mata,Minas Gerais,MG,3162302,são-joanense-da-mata,-21.9583076,-45.9229866,2749,120.54,22.8
2074,São João da Ponte,Minas Gerais,MG,3162401,pontense,-15.9084105,-43.8673222,25165,1851.1,13.6
2075,São João das Missões,Minas Gerais,MG,3162450,missionense,-14.9099825,-44.2099791,13014,678.27,19.2
2076,São João del Rei,Minas Gerais,MG,3162500,são-joanense,-21.1315795,-44.2530618,90082,1452.0,62.0
2077,São João do Manhuaçu,Minas Gerais,MG,3162559,sanjoanense,-20.3657963,-42.1473903,11559,143.1,80.8
2078,São João do Manteninha,Minas Gerais,MG,3162575,manteniense,-18.7234686,-41.1632231,5859,137.93,42.5
2079,São João do Oriente,Minas Gerais,MG,3162609,são-joanense,-19.3391389,-42.1580266,7498,120.12,62.4
2080,São João do Pacuí,Minas Gerais,MG,3162658,pacuíense,-16.584611,-44.5125127,4419,415.92,10.6
2081,São João do Paraíso,Minas Gerais,MG,3162708,paraisense,-15.3204298,-41.9989718,23618,1925.58,12.3
2082,São João Evangelista,Minas Gerais,MG,3162807,evangelistano,-18.4987051,-42.7662325,15774,478.18,33.0
2083,São João Nepomuceno,Minas Gerais,MG,3162906,são-joanense,-21.5367935,-43.0129853,26361,407.43,64.7
2084,São Joaquim de Bicas,Minas Gerais,MG,3162922,sanjoaquimbiquense,-20.0484521,-44.2753653,31578,71.76,440.1
2085,São José da Barra,Minas Gerais,MG,3162948,são josé barrense,-20.7184014,-46.3135249,7426,314.25,23.6
2086,São José da Lapa,Minas Gerais,MG,3162955,lapense,-19.702875,-43.9722816,23766,47.93,495.8
2087,São José da Safira,Minas Gerais,MG,3163003,safirense,-18.3289875,-42.1375086,4268,213.88,20.0
2088,São José da Varginha,Minas Gerais,MG,3163102,varginense-de-são-josé,-19.6960606,-44.5690225,5004,205.5,24.4
2089,São José do Alegre,Minas Gerais,MG,3163201,alegrense,-22.3377868,-45.5157676,4196,88.79,47.3
2090,São José do Divino,Minas Gerais,MG,3163300,são-josé-divinense,-18.4160917,-41.3811577,3860,328.7,11.7
2091,São José do Goiabal,Minas Gerais,MG,3163409,goiabalense,-19.9283481,-42.6880552,5420,189.58,28.6
2092,São José do Jacuri,Minas Gerais,MG,3163508,jacuriense,-18.2551155,-42.6880552,6453,345.15,18.7
2093,São José do Mantimento,Minas Gerais,MG,3163607,mantimentense,-20.0134581,-41.7705983,2791,54.7,51.0
2094,São Lourenço,Minas Gerais,MG,3163706,são-lourenciano,-22.1123693,-45.027985,45851,58.02,790.3
2095,São Miguel do Anta,Minas Gerais,MG,3163805,são-miguelense,-20.7188492,-42.7271587,6938,152.11,45.6
2096,São Pedro da União,Minas Gerais,MG,3163904,são-pedrense,-21.1330358,-46.6161255,4659,260.83,17.9
2097,São Pedro do Suaçuí,Minas Gerais,MG,3164100,são-pedrense,-18.3524279,-42.6097596,5246,308.11,17.0
2098,São Pedro dos Ferros,Minas Gerais,MG,3164001,ferrense,-20.0394697,-42.5705674,7781,402.74,19.3
2099,São Romão,Minas Gerais,MG,3164209,são-romano,-16.4040966,-45.2243578,12337,2434.0,5.1
2100,São Roque de Minas,Minas Gerais,MG,3164308,são-roquense,-20.177911,-46.4393054,7051,2098.87,3.4
2101,São Sebastião da Bela Vista,Minas Gerais,MG,3164407,bela-vistense,-22.1710999,-45.7710559,5504,167.43,32.9
2102,São Sebastião da Vargem Alegre,Minas Gerais,MG,3164431,são sebastião vargem alegrense,-21.0162774,-42.5999643,3007,73.63,40.8
2103,São Sebastião do Anta,Minas Gerais,MG,3164472,antense,-19.5141995,-41.9692387,6555,80.62,81.3
2104,São Sebastião do Maranhão,Minas Gerais,MG,3164506,maranhense,-18.0188934,-42.5117238,10044,517.83,19.4
2105,São Sebastião do Oeste,Minas Gerais,MG,3164605,sebastianense,-20.2970539,-45.0373171,6775,408.09,16.6
2106,São Sebastião do Paraíso,Minas Gerais,MG,3164704,paraisense,-20.917221,-46.984069,70956,814.93,87.1
2107,São Sebastião do Rio Preto,Minas Gerais,MG,3164803,são-sebastianense,-19.2920702,-43.2037681,1506,128.0,11.8
2108,São Sebastião do Rio Verde,Minas Gerais,MG,3164902,rio-verdense,-22.2245073,-45.027985,2241,90.85,24.7
2109,São Thomé das Letras,Minas Gerais,MG,3165206,são-tomeense,-21.7222555,-44.9835399,7089,369.75,19.2
2110,São Tiago,Minas Gerais,MG,3165008,são-tiaguense,-20.9422522,-44.5878439,10941,572.4,19.1
2111,São Tomás de Aquino,Minas Gerais,MG,3165107,aquinense,-20.798654,-47.0972424,7021,277.93,25.3
2112,São Vicente de Minas,Minas Gerais,MG,3165305,vicenciano,-21.7019654,-44.4458058,7753,392.65,19.7
2113,Sapucaí-Mirim,Minas Gerais,MG,3165404,sapucaiense,-22.8010181,-45.846961,6930,285.07,24.3
2114,Sardoá,Minas Gerais,MG,3165503,sardoense,-18.7801014,-42.4036715,6300,141.9,44.4
2115,Sarzedo,Minas Gerais,MG,3165537,sarzedense,-20.0625032,-44.1150413,32752,62.13,527.1
2116,Sem-Peixe,Minas Gerais,MG,3165560,sempeixiano,-20.1040571,-42.8415379,2633,176.63,14.9
2117,Senador Amaral,Minas Gerais,MG,3165578,amaralense,-22.5533642,-46.2282927,5356,151.1,35.4
2118,Senador Cortes,Minas Gerais,MG,3165602,senador-cortense,-21.7796746,-42.9124955,2005,98.34,20.4
2119,Senador Firmino,Minas Gerais,MG,3165701,firminense,-20.9039104,-43.1165621,7812,166.5,46.9
2120,Senador José Bento,Minas Gerais,MG,3165800,senabentense,-22.1638138,-46.1796644,1502,93.89,16.0
2121,Senador Modestino Gonçalves,Minas Gerais,MG,3165909,modestinense,-17.9475611,-43.2227449,4156,952.06,4.4
2122,Senhora de Oliveira,Minas Gerais,MG,3166006,oliveirense,-20.7970901,-43.339709,5786,170.75,33.9
2123,Senhora do Porto,Minas Gerais,MG,3166105,portuense,-18.9274032,-43.058341,3523,381.33,9.2
2124,Senhora dos Remédios,Minas Gerais,MG,3166204,remediense,-21.036587,-43.599128,10459,237.82,44.0
2125,Sericita,Minas Gerais,MG,3166303,sericitense,-20.4956325,-42.4528138,7326,166.01,44.1
2126,Seritinga,Minas Gerais,MG,3166402,seritinguense,-21.91851,-44.4181786,1851,114.77,16.1
2127,Serra Azul de Minas,Minas Gerais,MG,3166501,serra-azulense,-18.3790716,-43.194086,4293,218.6,19.6
2128,Serra da Saudade,Minas Gerais,MG,3166600,serrano-saudalense,-19.3901653,-45.7710559,781,335.66,2.3
2129,Serra do Salitre,Minas Gerais,MG,3166808,serralitrense,-19.1400405,-46.6319212,11582,1295.27,8.9
2130,Serra dos Aimorés,Minas Gerais,MG,3166709,serrense,-17.7871828,-40.2452592,8699,213.57,40.7
2131,Serrania,Minas Gerais,MG,3166907,serraniense,-21.549513,-46.0452199,7669,209.27,36.6
2132,Serranópolis de Minas,Minas Gerais,MG,3166956,serranopolitano de minas,-15.8481868,-42.8442913,4781,551.95,8.7
2133,Serranos,Minas Gerais,MG,3167004,serranense,-21.8424998,-44.5313569,1963,213.17,9.2
2134,Serro,Minas Gerais,MG,3167103,serrano,-18.6033652,-43.3790446,20966,1217.81,17.2
2135,Sete Lagoas,Minas Gerais,MG,3167202,sete-lagoano,-19.45738,-44.2416695,239639,536.64,446.6
2136,Setubinha,Minas Gerais,MG,3165552,setubinhense,-17.5714905,-42.1967716,12258,534.66,22.9
2137,Silveirânia,Minas Gerais,MG,3167301,silveiranense,-21.1461797,-43.194086,2261,157.46,14.4
2138,Silvianópolis,Minas Gerais,MG,3167400,silvianopolense,-22.0455554,-45.7900209,6238,312.17,20.0
2139,Simão Pereira,Minas Gerais,MG,3167509,simonense,-21.9594916,-43.2714907,2615,135.69,19.3
2140,Simonésia,Minas Gerais,MG,3167608,simonense,-20.1224278,-42.0029867,19633,486.54,40.4
2141,Sobrália,Minas Gerais,MG,3167707,sobraliense,-19.2349466,-42.1002015,5553,206.79,26.9
2142,Soledade de Minas,Minas Gerais,MG,3167806,soledadense,-22.0250382,-45.0186548,6151,196.87,31.2
2143,Tabuleiro,Minas Gerais,MG,3167905,tabuleirense,-21.3601581,-43.2485732,3750,211.08,17.8
2144,Taiobeiras,Minas Gerais,MG,3168002,taiobeirense,-15.8142935,-42.227378,34132,1220.05,28.0
2145,Taparuba,Minas Gerais,MG,3168051,taparubense,-19.7377695,-41.62114,3110,193.08,16.1
2146,Tapira,Minas Gerais,MG,3168101,tapirense,-19.8901806,-46.8640458,4773,1179.25,4.0
2147,Tapiraí,Minas Gerais,MG,3168200,tapiraiense,-19.8819574,-46.1517858,1875,407.92,4.6
2148,Taquaraçu de Minas,Minas Gerais,MG,3168309,taquaraçuense,-19.6519566,-43.6759049,4077,329.29,12.4
2149,Tarumirim,Minas Gerais,MG,3168408,tarumirinhense,-19.3376763,-41.8799408,14326,731.75,19.6
2150,Teixeiras,Minas Gerais,MG,3168507,teixeirense,-20.632882,-42.8832763,11661,166.74,69.9
2151,Teófilo Otoni,Minas Gerais,MG,3168606,teófilo-otonense,-17.8599967,-41.5090764,140592,3242.27,43.4
2152,Timóteo,Minas Gerais,MG,3168705,timotense,-19.5815631,-42.64752,89842,144.38,622.3
2153,Tiradentes,Minas Gerais,MG,3168804,tiradentino,-21.1102097,-44.1733621,7981,83.05,96.1
2154,Tiros,Minas Gerais,MG,3168903,tirense,-19.0047159,-45.9622445,6480,2091.77,3.1
2155,Tocantins,Minas Gerais,MG,3169000,tocantinense,-21.1721587,-43.0216004,16659,173.87,95.8
2156,Tocos do Moji,Minas Gerais,MG,3169059,tocos-mogiense,-22.3631235,-46.1422309,4101,114.71,35.8
2157,Toledo,Minas Gerais,MG,3169109,toledense,-22.713067,-46.3912683,6258,136.78,45.8
2158,Tombos,Minas Gerais,MG,3169208,tomboense,-20.9077328,-42.027224,8022,285.12,28.1
2159,Três Corações,Minas Gerais,MG,3169307,tricordiano,-21.692578,-45.2515461,79482,828.04,96.0
2160,Três Marias,Minas Gerais,MG,3169356,trimariense,-18.2053685,-45.231971,32356,2678.25,12.1
2161,Três Pontas,Minas Gerais,MG,3169406,três-pontano,-21.3699248,-45.5113164,56746,689.79,82.3
2162,Tumiritinga,Minas Gerais,MG,3169505,tumiritinguense,-19.0194013,-41.6410914,6732,500.07,13.5
2163,Tupaciguara,Minas Gerais,MG,3169604,tupaciguarense,-18.5938307,-48.7043878,25327,1823.96,13.9
2164,Turmalina,Minas Gerais,MG,3169703,turmalinense,-17.2856007,-42.7269059,19964,1153.11,17.3
2165,Turvolândia,Minas Gerais,MG,3169802,turvolandense,-21.8782055,-45.7902771,5040,221.0,22.8
2166,Ubá,Minas Gerais,MG,3169901,ubaense,-21.120123,-42.9426188,115552,407.45,283.6
2167,Ubaí,Minas Gerais,MG,3170008,ubaiense,-16.3596547,-46.9027545,12533,820.52,15.3
2168,Ubaporanga,Minas Gerais,MG,3170057,ubaporanguense,-19.6355348,-42.1063215,12471,189.05,66.0
2169,Uberaba,Minas Gerais,MG,3170107,uberabense,-19.7473748,-47.9391625,333783,4523.96,73.8
2170,Uberlândia,Minas Gerais,MG,3170206,uberlandense,-18.9146078,-48.2753801,691305,4115.21,168.0
2171,Umburatiba,Minas Gerais,MG,3170305,umburatibense,-17.2670112,-40.6752853,2611,405.83,6.4
2172,Unaí,Minas Gerais,MG,3170404,unaiense,-16.3596547,-46.9027545,84378,8448.08,10.0
2173,União de Minas,Minas Gerais,MG,3170438,uniense,-19.5288026,-50.3341593,4304,1147.41,3.8
2174,Uruana de Minas,Minas Gerais,MG,3170479,uruanense,-16.0674864,-46.3240951,3264,598.22,5.5
2175,Urucânia,Minas Gerais,MG,3170503,urucaniense,-20.3366572,-42.7271587,10358,138.79,74.6
2176,Urucuia,Minas Gerais,MG,3170529,urucuiano,-16.1266546,-45.7415324,16865,2076.94,8.1
2177,Vargem Alegre,Minas Gerais,MG,3170578,vargealegrense,-19.6021833,-42.2992753,6480,116.66,55.5
2178,Vargem Bonita,Minas Gerais,MG,3170602,vargiano,-20.406829,-46.3240951,2153,409.89,5.3
2179,Vargem Grande do Rio Pardo,Minas Gerais,MG,3170651,vargengrandense,-15.4021726,-42.3088683,5007,491.51,10.2
2180,Varginha,Minas Gerais,MG,3170701,varginhense,-21.5560521,-45.4368421,135558,395.4,342.8
2181,Varjão de Minas,Minas Gerais,MG,3170750,varjonense,-18.4661452,-45.8659561,7036,651.61,10.8
2182,Várzea da Palma,Minas Gerais,MG,3170800,várzea-palmense,-17.4725042,-44.6254642,39493,2220.28,17.8
2183,Varzelândia,Minas Gerais,MG,3170909,varzelandense,-15.6417201,-43.9055155,19320,814.99,23.7
2184,Vazante,Minas Gerais,MG,3171006,vazantino,-17.9924805,-46.9027651,20590,1913.4,10.8
2185,Verdelândia,Minas Gerais,MG,3171030,verdelandense,-15.5707846,-43.599128,9355,1570.58,6.0
2186,Veredinha,Minas Gerais,MG,3171071,veredinhense,-17.4271202,-42.7466993,5720,631.69,9.1
2187,Veríssimo,Minas Gerais,MG,3171105,verissimense,-19.6357006,-48.3589086,3999,1031.82,3.9
2188,Vermelho Novo,Minas Gerais,MG,3171154,vermelhense,-20.055432,-42.2559685,4839,115.24,42.0
2189,Vespasiano,Minas Gerais,MG,3171204,vespasianense,-19.7333431,-43.9341408,127601,71.08,1795.2
2190,Viçosa,Minas Gerais,MG,3171303,viçosense,-20.7548659,-42.8785788,78846,299.42,263.3
2191,Vieiras,Minas Gerais,MG,3171402,vieirense,-20.920422,-42.2855422,3608,112.69,32.0
2192,Virgem da Lapa,Minas Gerais,MG,3171600,virgem-lapense,-16.6993954,-42.3544831,13752,868.91,15.8
2193,Virgínia,Minas Gerais,MG,3171709,virginense,-22.3380866,-45.1120424,8674,326.52,26.6
2194,Virginópolis,Minas Gerais,MG,3171808,virginopolitano,-18.7861255,-42.6880552,10510,439.88,23.9
2195,Virgolândia,Minas Gerais,MG,3171907,virgolandense,-18.4736903,-42.3083273,5380,281.02,19.1
2196,Visconde do Rio Branco,Minas Gerais,MG,3172004,rio-branquense,-21.013792,-42.8376099,42564,243.35,174.9
2197,Volta Grande,Minas Gerais,MG,3172103,volta-grandense,-21.7675802,-42.5379069,5252,205.55,25.6
2198,Wenceslau Braz,Minas Gerais,MG,3172202,wenceslauense,-22.5616312,-45.4027482,2552,102.49,24.9
3594,Angra dos Reis,Rio de Janeiro,RJ,3300100,angrense,-23.0058039,-44.3157913,203785,813.21,250.6
3595,Aperibé,Rio de Janeiro,RJ,3300159,aperibeense,-21.6257256,-42.1020627,11759,94.54,124.4
3596,Araruama,Rio de Janeiro,RJ,3300209,araruamense,-22.8636192,-42.3336313,132400,638.15,207.5
3597,Areal,Rio de Janeiro,RJ,3300225,arealense,-22.2391121,-43.1165621,12572,110.72,113.5
3598,Armação dos Búzios,Rio de Janeiro,RJ,3300233,buziano,-22.7563906,-41.889042,33870,70.98,477.2
3599,Arraial do Cabo,Rio de Janeiro,RJ,3300258,cabista,-22.9657374,-42.0279869,30349,152.11,199.5
3600,Barra do Piraí,Rio de Janeiro,RJ,3300308,barrense,-22.4720256,-43.8273373,100374,584.61,171.7
3601,Barra Mansa,Rio de Janeiro,RJ,3300407,barra-mansense,-22.5408519,-44.1772604,184412,547.13,337.1
3602,Belford Roxo,Rio de Janeiro,RJ,3300456,belford-roxense,-22.7645391,-43.3996264,510906,78.99,6468.4
3603,Bom Jardim,Rio de Janeiro,RJ,3300506,bom-jardinense,-22.1979404,-42.3544831,27446,382.43,71.8
3604,Bom Jesus do Itabapoana,Rio de Janeiro,RJ,3300605,bom-jesuense,-21.1330059,-41.7407394,37096,596.66,62.2
3605,Cabo Frio,Rio de Janeiro,RJ,3300704,cabo-friense,-22.8867507,-42.0262542,226525,413.58,547.7
3606,Cachoeiras de Macacu,Rio de Janeiro,RJ,3300803,cachoeirense,-22.4662841,-42.6527507,58937,954.75,61.7
3607,Cambuci,Rio de Janeiro,RJ,3300902,cambuciense,-21.5734704,-41.9184067,15505,558.28,27.8
3608,Campos dos Goytacazes,Rio de Janeiro,RJ,3301009,campista,-21.7626902,-41.3184877,507548,4031.99,125.9
3609,Cantagalo,Rio de Janeiro,RJ,3301108,cantagalense,-21.9802716,-42.3625761,20172,746.93,27.0
3610,Carapebus,Rio de Janeiro,RJ,3300936,carapebuense,-22.1888948,-41.6617014,16301,307.39,53.0
3611,Cardoso Moreira,Rio de Janeiro,RJ,3301157,cardosense,-21.5406606,-41.4812771,12823,522.6,24.5
3612,Carmo,Rio de Janeiro,RJ,3301207,carmense,-21.9314519,-42.605043,18895,306.51,61.6
3613,Casimiro de Abreu,Rio de Janeiro,RJ,3301306,casimirense,-22.483591,-42.2016084,44184,462.92,95.4
3614,Comendador Levy Gasparian,Rio de Janeiro,RJ,3300951,gaspariense,-22.0294433,-43.2059216,8561,108.64,78.8
3615,Conceição de Macabu,Rio de Janeiro,RJ,3301405,macabuense,-22.0838675,-41.8722789,23228,349.21,66.5
3616,Cordeiro,Rio de Janeiro,RJ,3301504,cordeirense,-22.027222,-42.3652391,21926,113.32,193.5
3617,Duas Barras,Rio de Janeiro,RJ,3301603,bibarrense,-22.0708122,-42.5117238,11492,378.96,30.3
3618,Duque de Caxias,Rio de Janeiro,RJ,3301702,caxiense,-22.7862985,-43.3053106,919596,467.07,1968.9
3619,Engenheiro Paulo de Frontin,Rio de Janeiro,RJ,3301801,fronteense,-22.549749,-43.6776274,14002,139.82,100.1
3620,Guapimirim,Rio de Janeiro,RJ,3301850,guapimiriense,-22.535199,-42.9899491,60517,358.44,168.8
3621,Iguaba Grande,Rio de Janeiro,RJ,3301876,iguabense,-22.8142407,-42.2066423,28310,50.54,560.1
3622,Itaboraí,Rio de Janeiro,RJ,3301900,itaboraiense,-22.7570025,-42.8643167,240592,430.44,558.9
3623,Itaguaí,Rio de Janeiro,RJ,3302007,itaguaiense,-22.8631923,-43.7779091,133019,273.41,486.5
3624,Italva,Rio de Janeiro,RJ,3302056,italvense,-21.4285097,-41.6940704,15207,291.72,52.1
3625,Itaocara,Rio de Janeiro,RJ,3302106,itaocarense,-21.6704101,-42.0792551,23234,433.4,53.6
3626,Itaperuna,Rio de Janeiro,RJ,3302205,itaperunense,-21.2000807,-41.8802333,103224,1106.17,93.3
3627,Itatiaia,Rio de Janeiro,RJ,3302254,itatiaiense,-22.4428239,-44.5878439,31805,241.04,132.0
3628,Japeri,Rio de Janeiro,RJ,3302270,japeriense,-22.6439978,-43.6606463,104768,81.7,1282.4
3629,Laje do Muriaé,Rio de Janeiro,RJ,3302304,lajense,-21.2091798,-42.1187555,7355,253.56,29.0
3630,Macaé,Rio de Janeiro,RJ,3302403,macaense,-22.3836904,-41.7827891,256672,1215.49,211.2
3631,Macuco,Rio de Janeiro,RJ,3302452,macuquense,-21.9844505,-42.2531991,5599,77.72,72.0
3632,Magé,Rio de Janeiro,RJ,3302502,mageense,-22.6566022,-43.0398345,245071,390.78,627.1
3633,Mangaratiba,Rio de Janeiro,RJ,3302601,mangaratibano,-22.9427639,-44.040476,44468,358.56,124.0
3634,Maricá,Rio de Janeiro,RJ,3302700,maricaense,-22.9160994,-42.819192,161207,361.57,445.9
3635,Mendes,Rio de Janeiro,RJ,3302809,mendense,-22.525453,-43.7312481,18614,95.32,195.3
3636,Mesquita,Rio de Janeiro,RJ,3302858,mesquitnese,-22.7819449,-43.4293183,176103,41.49,4244.5
3637,Miguel Pereira,Rio de Janeiro,RJ,3302908,miguelense,-22.492096,-43.5029884,25538,287.93,88.7
3638,Miracema,Rio de Janeiro,RJ,3303005,miracemense,-21.398788,-42.1375086,27174,303.24,89.6
3639,Natividade,Rio de Janeiro,RJ,3303104,natividadense,-21.0333287,-41.9878239,15317,387.07,39.6
3640,Nilópolis,Rio de Janeiro,RJ,3303203,nilopolitano,-22.8098164,-43.4194095,162485,19.39,8378.5
3641,Niterói,Rio de Janeiro,RJ,3303302,niteroiense,-22.8858975,-43.1152211,513584,133.76,3839.7
3642,Nova Friburgo,Rio de Janeiro,RJ,3303401,friburguense,-22.2887261,-42.5340796,190631,935.43,203.8
3643,Nova Iguaçu,Rio de Janeiro,RJ,3303500,iguaçuano,-22.7561319,-43.4607419,821128,520.81,1576.6
3644,Paracambi,Rio de Janeiro,RJ,3303609,paracambiense,-22.6083757,-43.7112324,52257,190.95,273.7
3645,Paraíba do Sul,Rio de Janeiro,RJ,3303708,sul-paraibano,-22.1588749,-43.2904739,44285,571.12,77.5
3646,Paraty,Rio de Janeiro,RJ,3303807,paratiense,-23.2200542,-44.7204757,43165,924.3,46.7
3647,Paty do Alferes,Rio de Janeiro,RJ,3303856,patiense,-22.4313914,-43.4289497,27769,314.34,88.3
3648,Petrópolis,Rio de Janeiro,RJ,3303906,petropolitano,-22.5112638,-43.1779137,306191,791.14,387.0
3649,Pinheiral,Rio de Janeiro,RJ,3303955,pinheiralense,-22.5383309,-44.0103922,25156,82.25,305.8
3650,Piraí,Rio de Janeiro,RJ,3304003,piraiense,-22.602558,-43.9055155,29277,490.26,59.7
3651,Porciúncula,Rio de Janeiro,RJ,3304102,porciunculense,-20.9868314,-42.0979633,18847,291.85,64.6
3652,Porto Real,Rio de Janeiro,RJ,3304110,porto realense,-22.4179651,-44.2955901,19683,50.89,386.8
3653,Quatis,Rio de Janeiro,RJ,3304128,quatiense,-22.4083216,-44.2582153,14302,284.83,50.2
3654,Queimados,Rio de Janeiro,RJ,3304144,queimadense,-22.7106685,-43.5522256,150319,75.7,1985.7
3655,Quissamã,Rio de Janeiro,RJ,3304151,quissamaense,-22.1035956,-41.4696504,24700,709.4,34.8
3656,Resende,Rio de Janeiro,RJ,3304201,resendense,-22.4709621,-44.4513295,131341,1099.34,119.5
3657,Rio Bonito,Rio de Janeiro,RJ,3304300,rio-bonitense,-22.7186089,-42.6279835,60201,459.46,131.0
3658,Rio Claro,Rio de Janeiro,RJ,3304409,rio-clarense,-22.7259147,-44.1344071,18529,846.8,21.9
3659,Rio das Flores,Rio de Janeiro,RJ,3304508,rio-florense,-22.1748842,-43.599128,9284,478.78,19.4
3660,Rio das Ostras,Rio de Janeiro,RJ,3304524,rio ostrense,-22.5272615,-41.9463785,150674,228.04,660.7
3661,Rio de Janeiro,Rio de Janeiro,RJ,3304557,carioca,-22.9068467,-43.1728965,6718903,1200.26,5597.9
3662,Santa Maria Madalena,Rio de Janeiro,RJ,3304607,madalenense,-21.9613802,-42.0076409,10404,811.45,12.8
3663,Santo Antônio de Pádua,Rio de Janeiro,RJ,3304706,paduano,-21.5418158,-42.1837129,42479,603.63,70.4
3664,São Fidélis,Rio de Janeiro,RJ,3304805,fidelense,-21.647292,-41.747277,38669,1034.89,37.4
3665,São Francisco de Itabapoana,Rio de Janeiro,RJ,3304755,são franciscano,-21.4033845,-41.1602597,42205,1118.04,37.7
3666,São Gonçalo,Rio de Janeiro,RJ,3304904,gonçalense,-22.8272883,-43.0637646,1084839,248.16,4371.5
3667,São João da Barra,Rio de Janeiro,RJ,3305000,são-joanense,-21.6368603,-41.0484529,36102,452.89,79.7
3668,São João de Meriti,Rio de Janeiro,RJ,3305109,meritiense,-22.790968,-43.369805,472406,35.22,13414.5
3669,São José de Ubá,Rio de Janeiro,RJ,3305133,ubaense,-21.3822269,-41.9394892,7171,249.69,28.7
3670,São José do Vale do Rio Preto,Rio de Janeiro,RJ,3305158,rio-pretano,-22.1878784,-42.9222315,21795,220.06,99.0
3671,São Pedro da Aldeia,Rio de Janeiro,RJ,3305208,aldeiense,-22.7575561,-42.1343805,104476,332.92,313.8
3672,São Sebastião do Alto,Rio de Janeiro,RJ,3305307,altense,-21.874017,-42.0979633,9357,398.06,23.5
3673,Sapucaia,Rio de Janeiro,RJ,3305406,sapucaiense,-21.9951969,-42.914664,18228,540.67,33.7
3674,Saquarema,Rio de Janeiro,RJ,3305505,saquaremense,-22.932382,-42.4866843,89170,352.13,253.2
3675,Seropédica,Rio de Janeiro,RJ,3305554,seropediquense,-22.7691646,-43.6950804,82312,283.63,290.2
3676,Silva Jardim,Rio de Janeiro,RJ,3305604,silva-jardinense,-22.6578882,-42.3965262,21774,937.76,23.2
3677,Sumidouro,Rio de Janeiro,RJ,3305703,sumidourense,-22.0489564,-42.6765559,15623,413.37,37.8
3678,Tanguá,Rio de Janeiro,RJ,3305752,tanguaense,-22.7428038,-42.7205994,34309,142.53,240.7
3679,Teresópolis,Rio de Janeiro,RJ,3305802,teresopolitano,-22.416956,-42.9756194,182594,773.34,236.1
3680,Trajano de Moraes,Rio de Janeiro,RJ,3305901,trajanense,-22.0640032,-42.0601671,10626,588.53,18.1
3681,Três Rios,Rio de Janeiro,RJ,3306008,trirriense,-22.1170059,-43.218947,81804,322.84,253.4
3682,Valença,Rio de Janeiro,RJ,3306107,valenciano,-22.246015,-43.7069087,76523,1300.77,58.8
3683,Varre-Sai,Rio de Janeiro,RJ,3306156,varresaiense,-20.9280524,-41.8704877,11000,201.94,54.5
3684,Vassouras,Rio de Janeiro,RJ,3306206,vassourense,-22.4074708,-43.661407,36896,535.64,68.9
3685,Volta Redonda,Rio de Janeiro,RJ,3306305,volta-redondense,-22.5077597,-44.0947303,273012,182.11,1499.2
