id,cidade,estado,sigla,codigo,gentilico,latitude,longitude,populacao,area,densidade
6,Cruzeiro do Sul,Acre,AC,1200203,cruzeirense,-7.6280405,-72.6761608,88376,8779.4,10.1
16,Rio Branco,Acre,AC,1200401,rio-branquense,-9.9753837,-67.824918,407319,8834.94,46.1
144,Coari,Amazonas,AM,1301209,coariense,-4.0945957,-63.1446032,85097,57970.77,1.5
150,Humaitá,Amazonas,AM,1301704,humaitaense,-7.5169578,-63.0298013,55080,33111.14,1.7
153,Itacoatiara,Amazonas,AM,1301902,itacoatiarense,-3.3339824,-58.5543821,101337,8891.91,11.4
160,Manacapuru,Amazonas,AM,1302504,manacapuruense,-3.2897192,-60.6319066,97377,7336.58,13.3
163,Manicoré,Amazonas,AM,1302702,manicoreense,-5.8116004,-61.2915104,55751,48315.02,1.2
165,Maués,Amazonas,AM,1302900,maueense,-5.3064879,-58.1892921,63905,39991.07,1.6
170,Parintins,Amazonas,AM,1303403,parintinense,-2.6377821,-56.7295415,114273,5956.05,19.2
180,Tabatinga,Amazonas,AM,1304062,tabatinguense,-4.2316306,-69.936928,65844,3266.06,20.2
182,Tefé,Amazonas,AM,1304203,tefeense,-3.3514753,-64.7148236,59849,23692.22,2.5
192,Laranjal do Jari,Amapá,AP,1600279,laranjalense,1.0943041,-53.2180495,50410,30783.0,1.6
193,Macapá,Amapá,AP,1600303,macapaense,0.0355735,-51.070535,503327,6563.85,76.7
199,Santana,Amapá,AP,1600600,santanenses,0.0728284,-51.4421328,121364,1541.22,78.7
889,Águas Lindas de Goiás,Goiás,GO,5200258,águas lindense,-15.7460358,-48.299098,212440,192.39,1104.2
898,Anápolis,Goiás,GO,5201108,anapolino,-16.328546,-48.953403,386923,933.16,414.6
901,Aparecida de Goiânia,Goiás,GO,5201405,aparecidense,-16.820257,-49.2473044,578179,278.54,2075.8
930,Caldas Novas,Goiás,GO,5204508,caldense,-17.7006127,-48.598804,91162,1608.44,56.7
941,Catalão,Goiás,GO,5205109,catalano,-18.1661375,-47.944531,108823,3821.46,28.5
947,Cidade Ocidental,Goiás,GO,5205497,ocidentalense,-16.0980098,-47.936661,71376,390.96,182.6
953,Cristalina,Goiás,GO,5206206,cristalinense,-16.7681003,-47.613588,58997,6163.81,9.6
971,Formosa,Goiás,GO,5208004,formosense,-15.5404411,-47.3374297,121617,5813.64,20.9
976,Goianésia,Goiás,GO,5208608,goianesiense,-15.3122723,-49.1166441,70084,1547.27,45.3
992,Inhumas,Goiás,GO,5210000,inhumense,-16.3615082,-49.500561,52866,615.28,85.9
1006,Itumbiara,Goiás,GO,5211503,itumbiarense,-18.4097245,-49.2162908,104742,2464.51,42.5
1009,Jaraguá,Goiás,GO,5211800,jaraguense,-15.7533891,-49.3348795,50511,1849.55,27.3
1010,Jataí,Goiás,GO,5211909,jataiense,-17.8796049,-51.7206735,100882,7174.23,14.1
1017,Luziânia,Goiás,GO,5212501,luzianiense,-16.2514682,-47.9178219,208299,3961.1,52.6
1026,Mineiros,Goiás,GO,5213103,mineirense,-17.5624415,-52.5489206,66801,9038.78,7.4
1049,Novo Gama,Goiás,GO,5215231,novo-gamense,-16.1418779,-48.0605108,115711,194.59,594.7
1069,Planaltina,Goiás,GO,5217609,planaltinense,-15.4525008,-47.6093162,89918,2550.52,35.3
1076,Quirinópolis,Goiás,GO,5218508,quirinopolino,-18.4476442,-50.4551598,50065,3789.08,13.2
1080,Rio Verde,Goiás,GO,5218805,rio-verdense,-17.7927442,-50.9196623,235647,8386.83,28.1
1095,Santo Antônio do Descoberto,Goiás,GO,5219753,descobertense,-15.9416979,-48.2581886,74744,945.65,79.0
1106,Senador Canedo,Goiás,GO,5220454,canedense,-16.6948713,-49.1019233,115371,248.29,464.7
1115,Trindade,Goiás,GO,5221403,trindadense,-16.6521596,-49.4931169,127599,710.33,179.6
1123,Valparaíso de Goiás,Goiás,GO,5221858,valparaisense,-16.0655297,-47.9761119,168468,60.95,2764.0
2224,Corumbá,Mato Grosso do Sul,MS,5003207,corumbaense,-19.0081688,-57.6515503,111435,64721.72,1.7
2230,Dourados,Mato Grosso do Sul,MS,5003702,douradense,-22.2272034,-54.8291259,222949,4086.24,54.6
2251,Naviraí,Mato Grosso do Sul,MS,5005707,naviraiense,-23.062277,-54.1999693,54878,3193.55,17.2
2254,Nova Andradina,Mato Grosso do Sul,MS,5006200,nova-andradinense,-22.2385546,-53.3442543,54374,4776.0,11.4
2260,Ponta Porã,Mato Grosso do Sul,MS,5006606,ponta-poranense,-22.523123,-55.7242526,92526,5330.45,17.4
2271,Sidrolândia,Mato Grosso do Sul,MS,5007901,sidrolandense,-20.9306759,-54.9697524,57665,5286.41,10.9
2276,Três Lagoas,Mato Grosso do Sul,MS,5008305,três-lagoense,-20.7881656,-51.7030882,121388,10206.95,11.9
2280,Alta Floresta,Mato Grosso,MT,5100250,alta-florestense,-9.8764576,-56.085509,51782,8953.19,5.8
2294,Barra do Garças,Mato Grosso,MT,5101803,barra-garcense,-15.8916202,-52.2618826,61012,9079.29,6.7
2297,Cáceres,Mato Grosso,MT,5102504,cacerense,-16.0768867,-57.6822654,94376,24593.12,3.8
2315,Cuiabá,Mato Grosso,MT,5103403,cuiabano (papa peixe),-15.6014109,-56.0978917,612547,3266.54,187.5
2340,Lucas do Rio Verde,Mato Grosso,MT,5105259,luquense,-13.064847,-55.9193214,65534,3675.22,17.8
2380,Primavera do Leste,Mato Grosso,MT,5107040,primaverense,-15.5605187,-54.2950554,62019,5482.07,11.3
2387,Rondonópolis,Mato Grosso,MT,5107602,rondonopolitano,-16.4654526,-54.6387369,232491,4686.62,49.6
2406,Sorriso,Mato Grosso,MT,5107925,sorrisiense,-12.5429239,-55.7215037,90313,9347.56,9.7
2408,Tangará da Serra,Mato Grosso,MT,5107958,tangaraense,-14.6197868,-57.4875563,103750,11601.1,8.9
2415,Várzea Grande,Mato Grosso,MT,5108402,várzea-grandense,-15.646248,-56.1327131,284971,942.57,302.3
2419,Abaetetuba,Pará,PA,1500107,abaetetubense,-1.7222475,-48.8792245,157698,1610.65,97.9
2421,Acará,Pará,PA,1500206,acaraense,-2.0159736,-48.3190276,55591,4343.55,12.8
2424,Alenquer,Pará,PA,1500404,alenquerense,-0.8667864,-54.9611836,56789,23645.45,2.4
2426,Altamira,Pará,PA,1500602,altamirense,-3.1986664,-52.2104006,114594,159533.33,0.7
2428,Ananindeua,Pará,PA,1500800,ananindeuense,-1.3642722,-48.374721,530598,190.45,2786.0
2436,Barcarena,Pará,PA,1501303,barcarenense,-1.5798321,-48.598804,124680,1310.34,95.2
2439,Benevides,Pará,PA,1501501,benevidense,-1.3524989,-48.2592606,62737,187.83,334.0
2442,Bragança,Pará,PA,1501709,bragantino,-1.0616193,-46.7830109,127686,2098.14,60.9
2445,Breu Branco,Pará,PA,1501782,breuense,-3.7709326,-49.5657491,66046,3941.91,16.8
2446,Breves,Pará,PA,1501808,brevense,-1.681993,-50.4803853,102701,9566.57,10.7
2450,Cametá,Pará,PA,1502103,cametaense,-2.2414892,-49.4984804,137890,3081.37,44.7
2452,Capanema,Pará,PA,1502202,capanemense,-1.2056483,-47.178192,69027,614.69,112.3
2453,Capitão Poço,Pará,PA,1502301,capitão-pocense,-1.7482089,-47.0633437,54303,2899.55,18.7
2454,Castanhal,Pará,PA,1502400,castanhalense,-1.2983288,-47.9171616,200793,1030.26,194.9
2464,Dom Eliseu,Pará,PA,1502939,dom-eliseuense,-4.1913641,-47.8427298,59719,5268.81,11.3
2472,Igarapé-Miri,Pará,PA,1503309,igarapé-miriense,-1.9767218,-48.960543,62698,1996.79,31.4
2474,Ipixuna do Pará,Pará,PA,1503457,ipixunense,-2.9657358,-48.0010282,64053,5215.56,12.3
2476,Itaituba,Pará,PA,1503606,itaitubense,-4.2670701,-55.9931173,101247,62042.47,1.6
2477,Itupiranga,Pará,PA,1503705,itupiranguense,-5.1345016,-49.332012,53269,7880.11,6.8
2479,Jacundá,Pará,PA,1503804,jacundaense,-4.4470358,-49.1154573,59155,2008.32,29.5
2480,Juruti,Pará,PA,1503903,jurutiense,-2.1633702,-56.0952549,57943,8305.45,7.0
2484,Marabá,Pará,PA,1504208,marabaense,-5.3811326,-49.1331046,279349,15128.06,18.5
2487,Marituba,Pará,PA,1504422,maritubense,-1.3603782,-48.3424868,131521,103.34,1272.7
2491,Moju,Pará,PA,1504703,mojuense,-1.8844563,-48.7655306,82094,9094.14,9.0
2493,Monte Alegre,Pará,PA,1504802,montalegrense,-1.9981616,-54.0728404,58032,18152.56,3.2
2499,Novo Repartimento,Pará,PA,1505064,novo-repartimentense,-4.2478719,-49.9503928,75919,15398.72,4.9
2500,Óbidos,Pará,PA,1505106,obidense,-1.9014476,-55.5212832,52137,28021.44,1.9
2502,Oriximiná,Pará,PA,1505304,oriximinaense,-1.7618311,-55.8638155,73096,107603.44,0.7
2507,Paragominas,Pará,PA,1505502,paragominense,-3.0024862,-47.3531078,113145,19342.57,5.8
2508,Parauapebas,Pará,PA,1505536,parauapebense,-6.0682494,-49.904199,208273,6886.21,30.2
2514,Portel,Pará,PA,1505809,portelense,-1.9367459,-50.8198737,62043,25384.96,2.4
2519,Redenção,Pará,PA,1506138,redencense,-8.0257293,-50.0320734,84787,3823.81,22.2
2521,Rondon do Pará,Pará,PA,1506187,rondonense,-4.7783136,-48.0673853,52357,8246.39,6.3
2522,Rurópolis,Pará,PA,1506195,ruropolense,-4.1007938,-54.9093329,50510,7021.32,7.2
2527,Santa Izabel do Pará,Pará,PA,1506500,isabelense,-1.3931616,-48.1200592,70801,717.66,98.7
2531,Santana do Araguaia,Pará,PA,1506708,araguaiense,-9.336623,-50.3413852,72817,11591.46,6.3
2532,Santarém,Pará,PA,1506807,santareno,-2.4506291,-54.7009228,304589,17898.39,17.0
2538,São Félix do Xingu,Pará,PA,1507300,xinguense,-6.641438,-51.9825889,128481,84212.93,1.5
2544,São Miguel do Guamá,Pará,PA,1507607,guamaense,-1.6142433,-47.4815661,58986,1110.18,53.1
2549,Tailândia,Pará,PA,1507953,tailandense,-2.9381533,-48.9510796,106339,4430.48,24.0
2552,Tomé-Açu,Pará,PA,1508001,tomé-açuense,-2.6729327,-48.2393528,63447,5145.36,12.3
2556,Tucuruí,Pará,PA,1508100,tucuruiense,-3.8036143,-49.7728757,113659,2084.29,54.5
2557,Ulianópolis,Pará,PA,1508126,ulianopolense,-3.7502472,-47.501107,59210,5088.47,11.6
2559,Vigia,Pará,PA,1508209,vigiense,-0.9452342,-48.1002024,53686,401.59,133.7
2560,Viseu,Pará,PA,1508308,visinense,-1.4391409,-46.3624686,61403,4939.25,12.4
3857,Ariquemes,Rondônia,RO,1100023,ariquemense,-9.9061087,-63.0330263,107863,4426.57,24.4
3861,Cacoal,Rondônia,RO,1100049,cacoaense,-11.434693,-61.4566885,85359,3792.89,22.5
3875,Jaru,Rondônia,RO,1100114,jaruense,-10.4322235,-62.4792921,51775,2944.13,17.6
3876,Ji-Paraná,Rondônia,RO,1100122,ji-paranaense,-10.8781412,-61.9326728,128969,6896.65,18.7
3889,Porto Velho,Rondônia,RO,1100205,porto-velhense,-8.7611605,-63.9004303,529544,34090.95,15.5
3893,Rolim de Moura,Rondônia,RO,1100288,rolimorense,-11.7257556,-61.7781519,55058,1457.89,37.8
3904,Vilhena,Rondônia,RO,1100304,vilhenense,-12.7414031,-60.1304566,99854,11699.15,8.5
3907,Boa Vista,Roraima,RR,1400100,boa-vistense,2.8235098,-60.6758331,399213,5687.04,70.2
5443,Araguaína,Tocantins,TO,1702109,araguainense,-7.1927733,-48.204827,180470,4000.42,45.1
5490,Gurupi,Tocantins,TO,1709500,gurupiense,-11.7283752,-49.0686083,86647,1836.09,47.2
5520,Palmas,Tocantins,TO,1721000,palmense,-10.249091,-48.3242858,299127,2218.94,134.8
5524,Paraíso do Tocantins,Tocantins,TO,1716109,paraisense,-10.1754102,-48.8826983,51252,1268.06,40.4
5536,Porto Nacional,Tocantins,TO,1718204,portuense,-10.703164,-48.4084858,53010,4449.92,11.9
